RSECTION	DISTRICT	CO	ID_PREFIX	ID_RTE_NO	MUNICIPALITY	MP_SUFFIX	EXIT_NUMBER	RAMP_NUMBER	D	IS_INV_DIR	BEGIN_DIR_MP	END_DIR_MP	ROAD_NAME_START	BEGIN_DESCRIPTION	END_DESCRIPTION	SECTION_LENGTH	COLL_CATEGORY	PRIORITY	GOVT_CONTROL	NHS_CODE	INV_BMP	INV_EMP	BEG_LAT	BEG_LONG	END_LAT	END_LONG	GLOBAL_ROUTE_ID	SUB_ROUTE_ID	ROUTE	TRIMROUTE	ROUTEID	MULTIPLE_BEG_INT	MULTIPLE_END_INT	RVISIKEY	ASSOCIATED_ID_PREFIX	FDIR	BEGIN_SECTION_DESC	BEGIN_SECTION_MILE_POINT	END_SECTION_DESC	END_SECTION_MILE_POINT	COLLECTION_YEAR
6311	6	AL	CO	68	0				N	1	1.94	4.19	OLD LEGISLATIVE RD		SHAFT RD	2.25	2	5	2	0	1.94	4.19	39.6049215	-78.9548096	39.6340401	-78.9501782	63	1	CO 68	CO 68	01000CO00068  01NN**************		1	1	CO	5	SQUIRREL NECK RD	1.19			2016
6711	6	AL	CO	73	0				W	1	0	0.46	HARVEY RD	SHAFT RD	OLD LEGISLATIVE RD	0.46	2	5	2	0	0	0.46	39.6268934	-78.9405288	39.625887	-78.948204	67	1	CO 73	CO 73	01000CO00073  01WW**************	1	1	2	CO	5					2016
10911	6	AL	CO	121	0				S	1	0.61	0.87	HOFFMAN HOLLOW RD	VILLAGE PKWY	WASHINGTON HOLLOW RD	0.26	2	5	2	0	0.61	0.87	39.6428766	-78.9036487	39.6396091	-78.9023711	109	1	CO 121	CO 121	01000CO00121  01SS**************	0	0	3	CO	5	LAUREL HILL DR	0.45	OLD COUNTY RD	1.31	2016
11011	6	AL	CO	123	0				N	1	0	0.87	WASHINGTON HOLLOW RD	HOFFMAN HOLLOW RD	OLD NATIONAL PIKE	0.87	2	5	2	0	0	0.87	39.6396027	-78.9023489	39.6499516	-78.8954702	110	1	CO 123	CO 123	01000CO00123  01NN**************	1	1	4	CO	5					2016
32211	6	AL	CO	354	0				N	1	0	0.23	LONG DR	NATIONAL HWY	OLD CASH VALLEY RD	0.23	2	5	2	0	0	0.23	39.6547796	-78.8119363	39.6574688	-78.8139376	322	1	CO 354	CO 354	01000CO00354  01NN**************	1	1	5	CO	5					2016
40111	6	AL	CO	437	0				N	1	0	0.6	SHADES LA	SHADES LA (BACK)	NAVES CROSSROAD	0.6	2	5	2	0	0	0.6	39.6709149	-78.7411492	39.67746	-78.7346124	401	1	CO 437	CO 437	01000CO00437  01NN**************	1	1	6	CO	5					2016
40311	6	AL	CO	439	0				N	1	0	1.01	VALLEY RD	VALLEY ST (BACK)	BOARDWALK AVE	1.01	2	5	2	0	0	1.01	39.677086	-78.754076	39.689438	-78.744624	403	1	CO 439	CO 439	01000CO00439  01NN**************	1	0	7	CO	5			KNOB RD	1.47	2016
43211	6	AL	CO	469	0				S	1	0.03	0.47	CHRISTIE RD			0.44	2	5	2	0	0.03	0.47	39.6723814	-78.7277584	39.666639	-78.7255041	432	1	CO 469	CO 469	01000CO00469  01SS**************			8	CO	5	ALI GHAN RD	0	COUNTRY CLUB RD	0.54	2016
43311	6	AL	CO	471	0				E	1	0	1.61	COUNTRY CLUB RD	OLD WILLOWBROOK RD	CHRISTIE RD	1.61	2	5	2	0	0	1.61	39.6539328	-78.7388778	39.6662228	-78.7243465	433	1	CO 471	CO 471	01000CO00471  01EE**************	1	1	9	CO	5					2016
47111	6	AL	CO	512	0				W	1	0.19	0.61	MEXICO FARMS RD	END BRIDGE	BURBRIDGE RD	0.42	2	5	2	0	0.19	0.61	39.598515	-78.7420149	39.5992137	-78.7497627	471	1	CO 512	CO 512	01000CO00512  01WW**************	0	0	10	CO	5	STRUC #A0086	0.17	SPUR TO BIERMAN DR	0.78	2016
47611	6	AL	CO	518	0				W	1	0.34	1.6	PITTSBURGH PLATE GLASS RD		BURBRIDGE RD (AHEAD)	1.26	2	5	2	0	0.34	1.6	39.5885952	-78.7396783	39.5957737	-78.7539987	476	1	CO 518	CO 518	01000CO00518  01WW**************		1	11	CO	5	END BRIDGE	0.26			2016
53511	6	AL	CO	584	0				S	1	0	1.37	N ORLEANS RD	PENNSYLVANIA ST/L	NATIONAL PIKE	1.37	2	5	2	0	0	1.37	39.7225812	-78.3669833	39.705915	-78.376786	535	1	CO 584	CO 584	01000CO00584  01SS**************	1	1	12	CO	5					2016
62011	6	AL	CO	681	0				E	1	0	1.4	CABIN RUN RD	UPPER GEORGES CREEK RD	VALE SUMMIT RD (AHEAD)	1.4	2	5	2	0	0	1.4	39.6231515	-78.937725	39.6197195	-78.9156658	620	1	CO 681	CO 681	01000CO00681  01EE**************	1	1	13	CO	5					2016
63511	6	AL	CO	699	0				N	1	0	0.49	WELSH HILL RD	UPPER GEORGES CREEK RD	WELSH HILL RD (AHEAD)	0.49	2	5	2	0	0	0.49	39.6394082	-78.9291412	39.6461104	-78.9290274	635	1	CO 699	CO 699	01000CO00699  01NN**************	1	1	14	CO	5					2016
67611	6	AL	CO	743	0				S	1	0.8	0.92	OPESSA ST	OLDTOWN CEMETERY RD	GREEN SPRING RD	0.12	2	5	2	0	0.8	0.92	39.5419409	-78.6136895	39.5417151	-78.6114921	676	1	CO 743	CO 743	01000CO00743  01SS**************	0	0	15	CO	5	SPEED LIMIT 25 MPH	0.673	BASEBALL DIAMOND	0.958	2016
76011	6	AL	CO	846	0				W	1	0	0.98	CHERRY LA	HOFFMAN HOLLOW RD (BACK)	UPPER GEORGES CREEK RD	0.98	2	5	2	0	0	0.98	39.6361073	-78.9176904	39.6393439	-78.9291735	760	1	CO 846	CO 846	01000CO00846  01WW**************	1	1	16	CO	5					2016
76211	6	AL	CO	848	0				N	1	0	3.75	MURLEYS BRANCH RD	WILLIAMS RD (BACK)	OLD NATIONAL PIKE	3.75	2	5	2	0	0	3.75	39.6638505	-78.6112747	39.7033185	-78.5680992	762	1	CO 848	CO 848	01000CO00848  01NN**************	1	1	17	CO	5					2016
80111	6	AL	CO	889	0				E	1	0	0.34	WILLIAMS RD	WILLIAMS ST #1 (BACK)		0.34	2	5	2	0	0	0.34	39.646314	-78.741141	39.6446817	-78.7353417	801	1	CO 889	CO 889	01000CO00889  01EE**************	1		18	CO	5					2016
80511	6	AL	IS	68	0				E	1	0	40.79	NATIONAL FREEWAY	GARRETT CO/L	WASHINGTON CO/L	40.79	5	1	1	1	0	40.79	39.6658732	-78.9611358	39.7033214	-78.3213486	805	1	IS 68	IS 68	01000IS00068  01EE**************	1	1	19	IS	5					2016
80521	6	AL	IS	68	0				W	0	0	40.79	NATIONAL FREEWAY	WASHINGTON CO/L	GARRETT CO/L	40.79	3	3	1	1	0	40.79	39.7036853	-78.3217296	39.6659543	-78.9608645	805	2	IS 68	IS 68	01000IS00068  01EW**************	1	1	20	IS	6					2016
80611	6	AL	MD	35	0				N	1	0	2.37	ELLERSLIE RD	MT SAVAGE RD	PENNSYLVANIA ST/L	2.37	5	1	1	1	0	2.37	39.6928891	-78.7906096	39.7230142	-78.7745742	806	1	MD 35	MD 35	01000MD00035  01NN**************	1	1	21	MD	5					2016
80621	6	AL	MD	35	0				S	0	0	2.37	ELLERSLIE RD	PENNSYLVANIA ST/L	MT SAVAGE RD	2.37	3	3	1	1	0	2.37	39.723014	-78.774574	39.6929516	-78.7906806	806	2	MD 35	MD 35	01000MD00035  01NS**************	1	1	22	MD	6					2016
80711	6	AL	MD	36	0				N	1	0	15.05	NEW GEORGES CREEK RD	WEST VIRGINIA ST/L	EXIT #34	15.05	7	1	1	1	0	15.05	39.483263	-79.047084	39.6326917	-78.9176756	807	1	MD 36	MD 36	01000MD00036  01NN**************	1	1	23	MD	5					2016
80712	6	AL	MD	36	0				N	1	15.05	16.53	NEW GEORGES CREEK RD	EXIT #34	NATIONAL PIKE	1.48	5	1	1	1	15.05	16.53	39.6326917	-78.9176756	39.6512575	-78.9112592	807	1	MD 36	MD 36	01000MD00036  01NN**************	1	1	24	MD	5					2016
80713	6	AL	MD	36	0				N	1	17.6	27.34	N WATER ST	MAIN ST	ELLERSLIE RD	9.74	7	1	1	1	17.6	27.34	39.6578274	-78.9287436	39.6928891	-78.7906096	807	1	MD 36	MD 36	01000MD00036  01NN**************	1	0	25	MD	5					2016
80714	6	AL	MD	36	0				N	1	27.34	29.43	MT SAVAGE RD	ELLERSLIE RD	NATIONAL HWY	2.09	5	1	1	1	27.34	29.43	39.6928891	-78.7906096	39.6701941	-78.7902717	807	1	MD 36	MD 36	01000MD00036  01NN**************	0	1	26	MD	5					2016
80721	6	AL	MD	36	0				S	0	0	11.83	MT SAVAGE RD	NATIONAL HWY	MAIN ST	11.83	3	3	1	1	17.607	29.43	39.6701941	-78.7902717	39.6578274	-78.9287436	807	2	MD 36	MD 36	01000MD00036  01NS**************	1	1	27	MD	6					2016
80722	6	AL	MD	36	0				S	0	12.9	29.43	NEW GEORGES CREEK RD	NATIONAL PIKE	WEST VIRGINIA ST/L	16.53	3	3	1	1	0	16.489	39.6511282	-78.9124238	39.483263	-79.047084	807	2	MD 36	MD 36	01000MD00036  01NS**************	1	1	28	MD	6					2016
80811	6	AL	MD	36	0	B 			N	1	0	0.03	NO NAME	MT SAVAGE RD	ROAD END	0.03	8	4	1	0	0	0.03	39.7016723	-78.8348738	39.7022078	-78.8349465	808	1	MD 36 B	MD 36 B	01000MD00036B 04NN**************	1	1	29	MD	5					2016
80821	6	AL	MD	36	0	B 			S	0	0	0.03	NO NAME	ROAD END	MT SAVAGE RD	0.03	8	4	1	0	0	0.03	39.7022078	-78.8349465	39.7016723	-78.8348738	808	2	MD 36 B	MD 36 B	01000MD00036B 04NS**************	1	1	30	MD	6					2016
80911	6	AL	MD	36	0	C 			N	1	0	0.03	HOMEWOOD ST	STOP SIGN	HOMEWOOD ST (AHEAD)	0.03	8	4	1	0	0	0.03	39.6827352	-78.785593	39.6830318	-78.7857995	809	1	MD 36 C	MD 36 C	01000MD00036C 04NN**************	1	1	31	MD	5					2016
80921	6	AL	MD	36	0	C 			S	0	0	0.03	HOMEWOOD ST	HOMEWOOD ST (AHEAD)	MT SAVAGE RD	0.03	8	4	1	0	0	0.03	39.6830496	-78.785779	39.6827352	-78.785593	809	2	MD 36 C	MD 36 C	01000MD00036C 04NS**************	1	1	32	MD	6					2016
81011	6	AL	MD	47	0				N	1	0	1.67	BARRELVILLE RD	MT SAVAGE RD	PENNSYLVANIA ST/L	1.67	7	1	1	0	0	1.67	39.7007171	-78.8425469	39.7230391	-78.8454317	810	1	MD 47	MD 47	01000MD00047  01NN**************	1	1	33	MD	5					2016
81021	6	AL	MD	47	0				S	0	0.03	1.7	BARRELVILLE RD	PENNSYLVANIA ST/L	MT SAVAGE RD	1.67	3	3	1	0	0.03	1.7	39.7230391	-78.8454317	39.7007044	-78.8425116	810	2	MD 47	MD 47	01000MD00047  01NS**************	1	1	34	MD	6					2016
81111	6	AL	MD	49	0				E	1	0	1.02	BRADDOCK RD	CAMPGROUND RD	BRADDOCK RD (AHEAD)	1.02	7	1	1	0	0	1.02	39.6362314	-78.8292071	39.6418393	-78.8125618	811	1	MD 49	MD 49	01000MD00049  01EE**************	1	1	35	MD	5					2016
81121	6	AL	MD	49	0				W	0	0	1.02	BRADDOCK RD	BRADDOCK RD (AHEAD)	CAMPGROUND RD	1.02	3	3	1	0	0	1.02	39.6418567	-78.8125459	39.636226	-78.8292298	811	2	MD 49	MD 49	01000MD00049  01EW**************	1	1	36	MD	6					2016
81211	6	AL	MD	51	0				E	1	0	5.63	INDUSTRIAL BLVD	EXIT #43B	PITTSBURGH PLATE GLASS RD	5.63	5	1	1	1	0	5.63	39.648835	-78.76127	39.5899056	-78.7334679	812	1	MD 51	MD 51	01000MD00051  01EE**************	1	1	37	MD	5					2016
81212	6	AL	MD	51	0				E	1	5.63	25.53	OLDTOWN RD	PITTSBURGH PLATE GLASS RD	WEST VIRGINIA ST/L	19.9	7	1	1	1	5.63	25.53	39.5899056	-78.7334679	39.538014	-78.455766	812	1	MD 51	MD 51	01000MD00051  01EE**************	1	1	38	MD	5					2016
81221	6	AL	MD	51	0				W	0	0	25.53	OLDTOWN RD	WEST VIRGINIA ST/L	EXIT #43B	25.53	3	3	1	1	0	25.53	39.538014	-78.455766	39.6488529	-78.7611838	812	2	MD 51	MD 51	01000MD00051  01EW**************	1	1	39	MD	6					2016
81311	6	AL	MD	51	0	A 			N	1	0	0.04	S CENTRE ST	INDUSTRIAL BLVD	S CENTRE ST (AHEAD)	0.04	9	1	1	1	0	0.04	39.6476566	-78.7603912	39.648336	-78.7599349	813	1	MD 51 A	MD 51 A	01000MD00051A 01NN**************	1	1	40	MD	5					2016
81411	6	AL	MD	51	0	D 			S	1	0	0.18	EVITTS CREEK DR	OLDTOWN RD	CUL DE SAC	0.18	8	4	1	0	0	0.18	39.6265148	-78.7365383	39.6245876	-78.7345883	814	1	MD 51 D	MD 51 D	01000MD00051D 01SS**************	1	1	41	MD	5					2016
81421	6	AL	MD	51	0	D 			N	0	0	0.18	EVITTS CREEK DR	CUL DE SAC	MESSICK RD (BACK)	0.18	8	4	1	0	0	0.18	39.6246335	-78.7346151	39.6264957	-78.7364977	814	2	MD 51 D	MD 51 D	01000MD00051D 01SN**************	1	1	42	MD	6					2016
81511	6	AL	MD	51	0	E 			S	1	0	2.24	UHL HWY	OLDTOWN RD	PITTSBURGH PLATE GLASS RD (AHEAD)	2.24	7	1	1	0	0	2.24	39.6189275	-78.7314749	39.5899056	-78.7334679	815	1	MD 51 E	MD 51 E	01000MD00051E 01SS**************	1	1	43	MD	5					2016
81521	6	AL	MD	51	0	E 			N	0	0	2.24	UHL HWY	PITTSBURGH PLATE GLASS RD (AHEAD)	MESSICK RD (BACK)	2.24	3	3	1	0	0	2.24	39.5899056	-78.7334679	39.6188389	-78.7315051	815	2	MD 51 E	MD 51 E	01000MD00051E 01SN**************	1	1	44	MD	6					2016
81611	6	AL	MD	51	0	F 			N	1	0.23	0.33	BLUE VALLEY RD	BLUE VALLEY RD (BACK)	STOP SIGN	0.1	8	4	1	0	0.23	0.33	39.6074729	-78.7333762	39.6074471	-78.733347	816	1	MD 51 F	MD 51 F	01000MD00051F 01NN**************	1	1	45	MD	5					2016
81621	6	AL	MD	51	0	F 			S	0	0	0.1	BLUE VALLEY RD	OLDTOWN RD	BLUE VALLEY RD (BACK)	0.1	8	4	1	0	0	0.1	39.6074471	-78.733347	39.6074729	-78.7333762	816	2	MD 51 F	MD 51 F	01000MD00051F 01NS**************	1	1	46	MD	6					2016
81711	6	AL	MD	53	0				S	1	0	3.33	WINCHESTER RD	NATIONAL PIKE	WINCHESTER RD (AHEAD)	3.33	5	1	1	1	0	3.33	39.6368927	-78.8454745	39.5930513	-78.8338725	817	1	MD 53	MD 53	01000MD00053  01SS**************	1	1	47	MD	5					2016
81721	6	AL	MD	53	0				N	0	0.09	3.33	WINCHESTER RD	BRANT RD	NATIONAL PIKE	3.24	3	3	1	1	0.09	3.33	39.5945257	-78.8347249	39.6368945	-78.8453053	817	2	MD 53	MD 53	01000MD00053  01SN**************	0	1	48	MD	6					2016
81811	6	AL	MD	55	0				E	1	0	2.53	VALE SUMMIT RD	CABIN RUN RD (BACK)	NATIONAL PIKE	2.53	7	1	1	0	0	2.53	39.6197195	-78.9156658	39.6432439	-78.8884355	818	1	MD 55	MD 55	01000MD00055  01EE**************	1	1	49	MD	5					2016
81821	6	AL	MD	55	0				W	0	0	2.53	VALE SUMMIT RD	NATIONAL PIKE	CABIN RUN RD (BACK)	2.53	3	3	1	0	0	2.53	39.6432555	-78.8884599	39.6197403	-78.9156902	818	2	MD 55	MD 55	01000MD00055  01EW**************	1	1	50	MD	6					2016
81911	6	AL	MD	61	0				N	1	0	1.94	CANAL PKWY	WEST VIRGINIA ST/L	INDUSTRIAL BLVD	1.94	7	1	1	0	0	1.94	39.6214349	-78.7737783	39.6461517	-78.7615796	819	1	MD 61	MD 61	01000MD00061  01NN**************	1	1	51	MD	5					2016
81921	6	AL	MD	61	0				S	0	0	1.94	CANAL PKWY	INDUSTRIAL BLVD	WEST VIRGINIA ST/L	1.94	3	3	1	0	0	1.94	39.6455622	-78.7624636	39.6213374	-78.7738986	819	2	MD 61	MD 61	01000MD00061  01NS**************	1	1	52	MD	6					2016
82011	6	AL	MD	135	0				E	1	0	7.13	PRATT ST	GARRETT CO/L	QUEENS POINT RD (AHEAD)	7.13	7	1	1	0	0	7.13	39.48085	-79.066766	39.4461209	-78.9714099	820	1	MD 135	MD 135	01000MD00135  01EE**************	1	1	53	MD	5					2016
82021	6	AL	MD	135	0				W	0	0	7.13	QUEENS POINT RD	QUEENS POINT RD (AHEAD)	GARRETT CO/L	7.13	3	3	1	0	0	7.13	39.4461209	-78.9714099	39.48085	-79.066766	820	2	MD 135	MD 135	01000MD00135  01EW**************	1	1	54	MD	6					2016
82111	6	AL	MD	135	0	A 			N	1	0	0.78	CROOKS AVE	MCCOOLE WESTERNPORT RD	MCMULLEN HWY	0.78	2	5	1	0	0	0.78	39.4496674	-78.9783797	39.4585921	-78.9754775	821	1	MD 135 A	MD 135 A	01000MD00135A 01NN**************	1	1	55	MD	5					2016
82121	6	AL	MD	135	0	A 			S	0	0.001	0.78	CROOKS AVE	MCMULLEN HWY	MCCOOLE WESTERNPORT RD	0.779	8	4	1	0	0.001	0.78	39.4585927	-78.975504	39.4496674	-78.9783797	821	2	MD 135 A	MD 135 A	01000MD00135A 01NS**************	1	1	56	MD	6					2016
82211	6	AL	MD	135	0	B 			N	1	0	0.11	PAXTON ST	MCCOOLE WESTERNPORT RD	MCMULLEN HWY	0.11	8	4	1	0	0	0.11	39.4468721	-78.9730545	39.4471731	-78.971629	822	1	MD 135 B	MD 135 B	01000MD00135B 01NN**************	1	1	57	MD	5					2016
82221	6	AL	MD	135	0	B 			S	0	0	0.11	CHESAPEAKE AVE	MCMULLEN HWY	MCCOOLE WESTERNPORT RD	0.11	8	4	1	0	0	0.11	39.4473503	-78.9717318	39.4468721	-78.9730545	822	2	MD 135 B	MD 135 B	01000MD00135B 01NS**************	1	1	58	MD	6					2016
82311	6	AL	MD	135	0	D 			E	1	0	0.02	MASTELLER RD	STOP SIGN	WEST VIRGINIA ST/L	0.02	8	4	1	0	0	0.02	39.4802869	-79.0658602	39.4800894	-79.0661518	823	1	MD 135 D	MD 135 D	01000MD00135D 01EE**************	1	1	59	MD	5					2016
82321	6	AL	MD	135	0	D 			W	0	0	0.02	MASTELLER RD	STRUC #1134 POTOMAC RIVER	PRATT ST	0.02	8	4	1	0	0	0.02	39.4800539	-79.0661427	39.4802343	-79.0658588	823	2	MD 135 D	MD 135 D	01000MD00135D 01EW**************	1	1	60	MD	6					2016
82411	6	AL	MD	144	0				E	1	0	17.55	NAVES CROSS RD	BEDFORD RD	NATIONAL PIKE	17.55	7	1	1	0	0	17.55	39.6785111	-78.7366121	39.6771333	-78.4581488	824	1	MD 144	MD 144	01000MD00144  01EE**************	1	1	61	MD	5					2016
82421	6	AL	MD	144	0				W	0	0	17.55	OLD NATIONAL PIKE	NATIONAL PIKE	BEDFORD RD	17.55	3	3	1	0	0	17.55	39.6771429	-78.4581576	39.6784936	-78.7366603	824	2	MD 144	MD 144	01000MD00144  01EW**************	1	1	62	MD	6					2016
82511	6	AL	MD	144	0	AE			E	1	0	2.53	GILPIN RD	TOWN CREEK RD	OLD NATIONAL PIKE	2.53	7	1	1	0	0	2.53	39.6977616	-78.5601703	39.6956487	-78.5207784	825	1	MD 144 AE	MD 144 AE	01000MD00144AE01EE**************	1	1	63	MD	5					2016
82521	6	AL	MD	144	0	AE			W	0	0	2.53	GILPIN RD	OLD NATIONAL PIKE	BEDFORD RD	2.53	3	3	1	0	0	2.53	39.6956485	-78.5207849	39.6977616	-78.5601703	825	2	MD 144 AE	MD 144 AE	01000MD00144AE01EW**************	1	1	64	MD	6					2016
82611	6	AL	MD	144	0	AL			E	1	0	0.08	NO NAME	ROAD END	STOP SIGN	0.08	8	4	1	0	0	0.08	39.7059601	-78.3404505	39.7063239	-78.3394647	826	1	MD 144 AL	MD 144 AL	01000MD00144AL01EE**************	1	1	65	MD	5					2016
82621	6	AL	MD	144	0	AL			W	0	0	0.08	NO NAME	NATIONAL PIKE	ROAD END	0.08	8	4	1	0	0	0.08	39.7063196	-78.3394493	39.7058934	-78.3406689	826	2	MD 144 AL	MD 144 AL	01000MD00144AL01EW**************	1	1	66	MD	6					2016
82711	6	AL	MD	636	0				E	1	0	0.28	WARRIOR DR	WINCHESTER RD	MCMULLEN HWY	0.28	9	1	1	1	0	0.28	39.5958494	-78.8345812	39.595409	-78.8293	827	1	MD 636	MD 636	01000MD00636  01EE**************	1	1	67	MD	5					2016
82721	6	AL	MD	636	0				W	0	0	0.28	WARRIOR DR	MCMULLEN HWY	WINCHESTER RD	0.28	9	1	1	1	0	0.28	39.5953944	-78.8295025	39.5957743	-78.8345195	827	2	MD 636	MD 636	01000MD00636  01EW**************	1	1	68	MD	6					2016
82811	6	AL	MD	638	0				N	1	0	2.34	PARKERSBURG RD	OLD NATIONAL PIKE	MT SAVAGE RD	2.34	7	1	1	0	0	2.34	39.6498809	-78.8953176	39.6773774	-78.8962076	828	1	MD 638	MD 638	01000MD00638  01NN**************	1	1	69	MD	5					2016
82821	6	AL	MD	638	0				S	0	0	2.34	PARKERSBURG RD	MT SAVAGE RD	OLD NATIONAL PIKE	2.34	3	3	1	0	0	2.34	39.6773774	-78.8962076	39.6498809	-78.8953176	828	2	MD 638	MD 638	01000MD00638  01NS**************	1	1	70	MD	6					2016
82911	6	AL	MD	639	0				S	1	0	2.79	WILLOWBROOK RD	EXIT #44	EVITTS CREEK DR (BACK)	2.79	7	1	1	0	0	2.79	39.6569216	-78.748106	39.6264957	-78.7364977	829	1	MD 639	MD 639	01000MD00639  01SS**************	1	1	71	MD	5					2016
82921	6	AL	MD	639	0				N	0	0	2.79	MESSICK RD	EVITTS CREEK DR (BACK)	EXIT #44	2.79	3	3	1	0	0	2.79	39.6264957	-78.7364977	39.6570096	-78.7480549	829	2	MD 639	MD 639	01000MD00639  01SN**************	1	1	72	MD	6					2016
83011	6	AL	MD	639	0	A 			N	1	0	0.26	NO NAME	STOP SIGN	ENT TO PARKING LOT	0.26	8	4	1	0	0	0.26	39.6496793	-78.7323235	39.6510193	-78.7303844	830	1	MD 639 A	MD 639 A	01000MD00639A 01NN**************	1	1	73	MD	5					2016
83021	6	AL	MD	639	0	A 			S	0	0.07	0.26	NO NAME	ENT TO PARKING	STOP SIGN	0.19	8	4	1	0	0.07	0.26	39.651181	-78.729482	39.6496793	-78.7323235	830	2	MD 639 A	MD 639 A	01000MD00639A 01NS**************	0	1	74	MD	6					2016
83111	6	AL	MD	639	0	B 			N	1	0	0.06	COUNTRY CLUB RD	STOP SIGN	OLD WILLOWBROOK RD	0.06	8	4	1	0	0	0.06	39.6530656	-78.7392361	39.6539136	-78.7388888	831	1	MD 639 B	MD 639 B	01000MD00639B 01NN**************	1	1	75	MD	5					2016
83121	6	AL	MD	639	0	B 			S	0	0	0.06	COUNTRY CLUB RD	COUNTRY CLUB RD (AHEAD)	STOP SIGN	0.06	8	4	1	0	0	0.06	39.6539136	-78.7388888	39.6531018	-78.7392522	831	2	MD 639 B	MD 639 B	01000MD00639B 01NS**************	1	1	76	MD	6					2016
83311	6	AL	MD	658	0				N	1	0	0.84	VOCKE RD	WINCHESTER RD	NATIONAL HWY	0.84	9	1	1	1	0	0.84	39.6306691	-78.8374653	39.6389203	-78.8305547	833	1	MD 658	MD 658	01000MD00658  01NN**************	1	1	77	MD	5					2016
83321	6	AL	MD	658	0				S	0	0	0.84	CAMPGROUND RD	NATIONAL HWY	WINCHESTER RD	0.84	9	1	1	1	0	0.84	39.6389203	-78.8305547	39.6308188	-78.8374559	833	2	MD 658	MD 658	01000MD00658  01NS**************	1	1	78	MD	6					2016
83411	6	AL	MD	736	0				S	1	0	1.58	BRADDOCK RD	PARK AVE #2	SHAFT RD	1.58	7	1	1	0	0	1.58	39.6492016	-78.9298951	39.6340844	-78.9502215	834	1	MD 736	MD 736	01000MD00736  01SS**************	1	1	79	MD	5					2016
83421	6	AL	MD	736	0				N	0	0	1.58	MIDLOTHIAN RD	SHAFT RD	PARK AVE #2	1.58	3	3	1	0	0	1.58	39.6340844	-78.9502215	39.6492324	-78.929935	834	2	MD 736	MD 736	01000MD00736  01SN**************	1	1	80	MD	6					2016
83511	6	AL	MD	743	0				E	1	0	1	OLD NATIONAL PIKE	NEW GEORGES CREEK RD	NATIONAL PIKE	1	7	1	1	0	0	1	39.6499333	-78.9105749	39.649494	-78.8939808	835	1	MD 743	MD 743	01000MD00743  01EE**************	1	1	81	MD	5					2016
83521	6	AL	MD	743	0				W	0	0	1	OLD NATIONAL PIKE	NATIONAL PIKE	NEW GEORGES CREEK RD	1	3	3	1	0	0	1	39.649494	-78.8939808	39.6500977	-78.9105051	835	2	MD 743	MD 743	01000MD00743  01EW**************	1	1	82	MD	6					2016
83611	6	AL	MD	807	0				N	1	0	3.52	BEDFORD RD	FREDERICK ST (BACK)	NO NAME	3.52	7	1	1	0	0	3.52	39.6754844	-78.7411594	39.7151352	-78.7033055	836	1	MD 807	MD 807	01000MD00807  01NN**************	1	1	83	MD	5					2016
83621	6	AL	MD	807	0				S	0	0	3.52	BEDFORD RD	NO NAME	FREDERICK ST (BACK)	3.52	3	3	1	0	0	3.52	39.7151352	-78.7033055	39.6760872	-78.7411594	836	2	MD 807	MD 807	01000MD00807  01NS**************	1	1	84	MD	6					2016
83711	6	AL	MD	807	0	A 			E	1	0	0.1	NAVES CROSS RD	CHRISTIE RD	MASON RD	0.1	8	4	1	0	0	0.1	39.6744914	-78.7274111	39.6737181	-78.7258621	837	1	MD 807 A	MD 807 A	01000MD00807A 01EE**************	1	1	85	MD	5					2016
83721	6	AL	MD	807	0	A 			W	0	0	0.1	NAVES CROSS RD	MASON RD	CHRISTIE RD	0.1	8	4	1	0	0	0.1	39.6737475	-78.7257831	39.6745006	-78.7273272	837	2	MD 807 A	MD 807 A	01000MD00807A 01EW**************	1	1	86	MD	6					2016
83811	6	AL	MD	807	0	B 			N	1	0	0.38	BEDFORD RD	STOP SIGN	CUL DE SAC	0.38	8	4	1	0	0	0.38	39.7149374	-78.7053623	39.7201811	-78.7041766	838	1	MD 807 B	MD 807 B	01000MD00807B 01NN**************	1	1	87	MD	5					2016
83821	6	AL	MD	807	0	B 			S	0	0	0.38	BEDFORD RD	CUL DE SAC	BEDFORD RD	0.38	8	4	1	0	0	0.38	39.7198444	-78.7041877	39.7149251	-78.7053416	838	2	MD 807 B	MD 807 B	01000MD00807B 01NS**************	1	1	88	MD	6					2016
83911	6	AL	MD	807	0	C 			S	1	0	0.1	NO NAME	NO NAME	CUL DE SAC	0.1	8	4	1	0	0	0.1	39.7224318	-78.7060545	39.721541	-78.7053127	839	1	MD 807 C	MD 807 C	01000MD00807C 01SS**************	1	1	89	MD	5					2016
83921	6	AL	MD	807	0	C 			N	0	0	0.1	NO NAME	CUL DE SAC	NO NAME	0.1	8	4	1	0	0	0.1	39.721541	-78.7053127	39.7224318	-78.7060545	839	2	MD 807 C	MD 807 C	01000MD00807C 01SN**************	1	1	90	MD	6					2016
84011	6	AL	MD	807	0	D 			N	1	0	0.23	PINE RIDGE RD	NO NAME	PINE RIDGE RD (AHEAD)	0.23	8	4	1	0	0	0.23	39.7216625	-78.7049305	39.7226045	-78.7010611	840	1	MD 807 D	MD 807 D	01000MD00807D 01NN**************	1	1	91	MD	5					2016
84021	6	AL	MD	807	0	D 			S	0	0	0.23	PINE RIDGE RD	PINE RIDGE RD (AHEAD)	NO NAME	0.23	8	4	1	0	0	0.23	39.7226045	-78.7010611	39.7216625	-78.7049305	840	2	MD 807 D	MD 807 D	01000MD00807D 01NS**************	1	1	92	MD	6					2016
84111	6	AL	MD	807	0	E 			N	1	0.81	0.88	SMOUSES MILL RD	SMOUSES MILL RD (BACK)	BEDFORD RD (AHEAD)	0.07	8	4	1	0	0.81	0.88	39.7149242	-78.7018491	39.7151836	-78.7031225	841	1	MD 807 E	MD 807 E	01000MD00807E 01NN**************	1	1	93	MD	5					2016
84121	6	AL	MD	807	0	E 			S	0	0	0.07	SMOUSES MILL RD	BEDFORD RD (AHEAD)	HAZEN RD	0.07	8	4	1	0	0	0.07	39.7151836	-78.7031225	39.7149242	-78.7018491	841	2	MD 807 E	MD 807 E	01000MD00807E 01NS**************	1	1	94	MD	6					2016
84211	6	AL	MD	830	0	A 			S	1	0	0.02	NO NAME	MCMULLEN HWY	ROAD END	0.02	8	4	1	0	0	0.02	39.4706794	-78.946349	39.4703684	-78.9463376	842	1	MD 830 A	MD 830 A	01000MD00830A 01SS**************	1	1	95	MD	5					2016
84221	6	AL	MD	830	0	A 			N	0	0	0.02	NO NAME	ROAD END	MCMULLEN HWY	0.02	8	4	1	0	0	0.02	39.4704721	-78.9464904	39.4706653	-78.9463204	842	2	MD 830 A	MD 830 A	01000MD00830A 01SN**************	1	1	96	MD	6					2016
84311	6	AL	MD	830	0	B 			N	1	0	0.04	NO NAME	MCMULLEN HWY	ROAD END - GATE/BARRICADE	0.04	8	4	1	0	0	0.04	39.5316299	-78.8930762	39.5320445	-78.8925758	843	1	MD 830 B	MD 830 B	01000MD00830B 01NN**************	1	1	97	MD	5					2016
84321	6	AL	MD	830	0	B 			S	0	0	0.04	NO NAME	ROAD END - GATE/BARRICADE	MCMULLEN HWY	0.04	8	4	1	0	0	0.04	39.5320681	-78.8925676	39.5316632	-78.8931139	843	2	MD 830 B	MD 830 B	01000MD00830B 01NS**************	1	1	98	MD	6					2016
84411	6	AL	MD	831	0	A 			N	1	0	0.48	OLD MT SAVAGE RD	STOP SIGN	STOP SIGN	0.48	8	4	1	0	0	0.48	39.6693306	-78.7930077	39.6755479	-78.7918365	844	1	MD 831 A	MD 831 A	01000MD00831A 01NN**************	1	1	99	MD	5					2016
84421	6	AL	MD	831	0	A 			S	0	0	0.48	DAKOTA RD	MT SAVAGE RD	NATIONAL HWY	0.48	8	4	1	0	0	0.48	39.6755479	-78.7918365	39.6693306	-78.7930077	844	2	MD 831 A	MD 831 A	01000MD00831A 01NS**************	1	1	100	MD	6					2016
84511	6	AL	MD	831	0	B 			N	1	0	0.11	OLD MOUNT SAVAGE RD	ROAD END - GATE/BARRICADE	ROAD END - GATE/BARRICADE	0.11	8	4	1	0	0	0.11	39.6827854	-78.7862495	39.6835792	-78.7844958	845	1	MD 831 B	MD 831 B	01000MD00831B 01NN**************	1	1	101	MD	5					2016
84521	6	AL	MD	831	0	B 			S	0	0	0.11	OLD MOUNT SAVAGE RD	ROAD END - GATE/BARRICADE	ROAD END - GATE/BARRICADE	0.11	8	4	1	0	0	0.11	39.6835446	-78.7845822	39.6827972	-78.7862466	845	2	MD 831 B	MD 831 B	01000MD00831B 01NS**************	1	1	102	MD	6					2016
84611	6	AL	MD	831	0	C 			N	1	0	0.9	KREIGBAUM RD	STOP SIGN	STOP SIGN	0.9	8	4	1	0	0	0.9	39.6917891	-78.8034968	39.693149	-78.787319	846	1	MD 831 C	MD 831 C	01000MD00831C 01NN**************	1	1	103	MD	5					2016
84621	6	AL	MD	831	0	C 			S	0	0	0.9	KREIGBAUM RD	CASH VALLEY DR (AHEAD)	MT SAVAGE RD	0.9	8	4	1	0	0	0.9	39.693149	-78.787319	39.6917792	-78.8034879	846	2	MD 831 C	MD 831 C	01000MD00831C 01NS**************	1	1	104	MD	6					2016
84711	6	AL	MD	831	0	D 			N	1	0	0.37	PORTER TOWN RD	STOP SIGN	STOP SIGN	0.37	8	4	1	0	0	0.37	39.6977632	-78.8220986	39.697737	-78.8220589	847	1	MD 831 D	MD 831 D	01000MD00831D 01NN**************	1	1	105	MD	5					2016
84721	6	AL	MD	831	0	D 			S	0	0	0.37	PORTER TOWN RD	MT SAVAGE RD	MT SAVAGE RD	0.37	8	4	1	0	0	0.37	39.697737	-78.8220589	39.6995467	-78.8280998	847	2	MD 831 D	MD 831 D	01000MD00831D 01NS**************	1	1	106	MD	6					2016
84811	6	AL	MD	831	0	F 			E	1	0	0.04	NO NAME	ROAD END	BARRELVILLE RD	0.04	8	4	1	0	0	0.04	39.7011424	-78.8434718	39.7011861	-78.8427935	848	1	MD 831 F	MD 831 F	01000MD00831F 01EE**************	1	1	107	MD	5					2016
84821	6	AL	MD	831	0	F 			W	0	0	0.04	NO NAME	BARRELVILLE RD	ROAD END	0.04	8	4	1	0	0	0.04	39.7011861	-78.8427935	39.7011424	-78.8434718	848	2	MD 831 F	MD 831 F	01000MD00831F 01EW**************	1	1	108	MD	6					2016
84911	6	AL	MD	831	0	G 			N	1	0	0.12	CABOOSE RD	CUL DE SAC	STOP SIGN	0.12	8	4	1	0	0	0.12	39.6344613	-78.9329625	39.6357832	-78.9315244	849	1	MD 831 G	MD 831 G	01000MD00831G 04NN**************	1	1	109	MD	5					2016
84921	6	AL	MD	831	0	G 			S	0	0	0.12	CABOOSE RD	STOP SIGN	CUL DE SAC	0.12	8	4	1	0	0	0.12	39.6357833	-78.9315233	39.6344346	-78.9330061	849	2	MD 831 G	MD 831 G	01000MD00831G 04NS**************	1	1	110	MD	6					2016
85011	6	AL	MD	831	0	H 			W	1	0	0.07	NO NAME	KREIGBAUM RD	ROAD END - GATE/BARRICADE	0.07	8	4	1	0	0	0.07	39.6919445	-78.8034546	39.6921902	-78.8045151	850	1	MD 831 H	MD 831 H	01000MD00831H 01WW**************	1	1	111	MD	5					2016
85021	6	AL	MD	831	0	H 			E	0	0	0.07	NO NAME	ROAD END - GATE/BARRICADE	KREIGBAUM RD	0.07	8	4	1	0	0	0.07	39.6921754	-78.8043826	39.6919445	-78.8034546	850	2	MD 831 H	MD 831 H	01000MD00831H 01WE**************	1	1	112	MD	6					2016
85111	6	AL	MD	831	0	I 			N	1	0	0.04	DAKOTA AVE	DAKOTA RD	ROAD END - GATE/BARRICADE	0.04	8	4	1	0	0	0.04	39.6756189	-78.7922311	39.6760521	-78.7919994	851	1	MD 831 I	MD 831 I	01000MD00831I 04NN**************	1	1	113	MD	5					2016
85121	6	AL	MD	831	0	I 			S	0	0	0.04	DAKOTA AVE	ROAD END - GATE/BARRICADE	DAKOTA RD	0.04	8	4	1	0	0	0.04	39.6759406	-78.7920666	39.6756189	-78.7922311	851	2	MD 831 I	MD 831 I	01000MD00831I 04NS**************	1	1	114	MD	6					2016
85211	6	AL	MD	935	0				N	1	0	2.99	LOWER GEORGES CREEK RD	MILLER RD (BACK)	LOWER GEORGES CREEK RD	2.99	7	1	1	0	0	2.99	39.5229425	-79.0177614	39.5528891	-78.9906992	852	1	MD 935	MD 935	01000MD00935  01NN**************	1	1	115	MD	5					2016
85221	6	AL	MD	935	0				S	0	0	2.99	LOWER GEORGES CREEK RD	LOWER GEORGES CREEK RD	MILLER RD (BACK)	2.99	3	3	1	0	0	2.99	39.5528891	-78.9906992	39.5229785	-79.0177381	852	2	MD 935	MD 935	01000MD00935  01NS**************	1	1	116	MD	6					2016
85311	6	AL	MD	935	0	A 			E	1	0	0.1	NO NAME	LOWER GEORGES CREEK RD	STOP SIGN	0.1	8	4	1	0	0	0.1	39.5456781	-79.0044884	39.5461045	-79.0029774	853	1	MD 935 A	MD 935 A	01000MD00935A 01EE**************	1	1	117	MD	5					2016
85321	6	AL	MD	935	0	A 			W	0	0	0.1	NO NAME	NEW GEORGES CREEK RD	LOWER GEORGES CREEK RD	0.1	8	4	1	0	0	0.1	39.5461045	-79.0029774	39.5456781	-79.0044884	853	2	MD 935 A	MD 935 A	01000MD00935A 01EW**************	1	1	118	MD	6					2016
85411	6	AL	MD	936	0				N	1	0	5.04	UPPER GEORGES CREEK RD	CHURCH ST	MAIN ST	5.04	7	1	1	0	0	5.04	39.5910166	-78.9485711	39.6543246	-78.9213259	854	1	MD 936	MD 936	01000MD00936  01NN**************	1	1	119	MD	5					2016
85421	6	AL	MD	936	0				S	0	0	5.04	GRANT ST	MAIN ST	CHURCH ST	5.04	3	3	1	0	0	5.04	39.6543318	-78.9213482	39.5910327	-78.9486015	854	2	MD 936	MD 936	01000MD00936  01NS**************	1	1	120	MD	6					2016
85511	6	AL	MD	937	0				N	1	1.07	1.53	CREEKSIDE DR	OUT CORP LMTS WESTERNPORT	NEW GEORGES CREEK RD	0.46	7	1	1	0	1.07	1.53	39.4965789	-79.0456404	39.5026329	-79.0488269	855	1	MD 937	MD 937	01000MD00937  01NN**************	1	1	121	MD	5					2016
85521	6	AL	MD	937	0				S	0	0	0.46	CREEKSIDE DR	NEW GEORGES CREEK RD	OUT CORP LMTS WESTERNPORT	0.46	3	3	1	0	0	0.46	39.5026624	-79.0488192	39.4965978	-79.0456536	855	2	MD 937	MD 937	01000MD00937  01NS**************	1	1	122	MD	6					2016
85611	6	AL	MD	939	0				N	1	0	0.01	NO NAME	NEW GEORGES CREEK RD	ROAD END - GATE/BARRICADE	0.01	8	4	1	0	0	0.01	39.5200707	-79.0186051	39.5201333	-79.0188162	856	1	MD 939	MD 939	01000MD00939  01NN**************	1	1	123	MD	5					2016
85621	6	AL	MD	939	0				S	0	0	0.01	NO NAME	ROAD END - GATE/BARRICADE	NEW GEORGES CREEK RD	0.01	8	4	1	0	0	0.01	39.52017	-79.0188681	39.5200707	-79.0186051	856	2	MD 939	MD 939	01000MD00939  01NS**************	1	1	124	MD	6					2016
85711	6	AL	MD	942	0				N	1	0	0.06	BRIDGE ST	WEST VIRGINIA ST/L	BRIDGE ST (AHEAD)	0.06	8	4	1	0	0	0.06	39.6483697	-78.7660424	39.6489877	-78.7655407	857	1	MD 942	MD 942	01000MD00942  01NN**************	1	1	125	MD	5					2016
85721	6	AL	MD	942	0				S	0	0	0.06	BRIDGE ST	BRIDGE ST (AHEAD)	BEGIN BRIDGE	0.06	8	4	1	0	0	0.06	39.6490266	-78.765622	39.6483697	-78.7660424	857	2	MD 942	MD 942	01000MD00942  01NS**************	1	1	126	MD	6					2016
85811	6	AL	MD	948	0	AD			N	1	0	0.2	PLEASANT VALLEY RD	STOP SIGN	LAKEVIEW DR	0.2	8	4	1	0	0	0.2	39.6933637	-78.6491279	39.6959211	-78.6507921	858	1	MD 948 AD	MD 948 AD	01000MD00948AD01NN**************	1	1	127	MD	5					2016
85821	6	AL	MD	948	0	AD			S	0	0	0.2	PLEASANT VALLEY RD	LAKEVIEW DR	NATIONAL PIKE	0.2	8	4	1	0	0	0.2	39.6959233	-78.6509054	39.6933708	-78.6491872	858	2	MD 948 AD	MD 948 AD	01000MD00948AD01NS**************	1	1	128	MD	6					2016
85911	6	AL	MD	948	0	AE			S	1	2.42	2.6	ROCKY GAP RD	ROCKY GAP RD (BACK)	STOP SIGN	0.18	8	4	1	0	2.42	2.6	39.6842435	-78.6706653	39.6825661	-78.6683111	859	1	MD 948 AE	MD 948 AE	01000MD00948AE01SS**************	1	1	129	MD	5					2016
85921	6	AL	MD	948	0	AE			N	0	0	0.18	ROCKY GAP RD	NATIONAL PIKE	ROCKY GAP RD (BACK)	0.18	8	4	1	0	0	0.18	39.6825661	-78.6683111	39.6842435	-78.6706653	859	2	MD 948 AE	MD 948 AE	01000MD00948AE01SN**************	1	1	130	MD	6					2016
86011	6	AL	MD	948	0	AF			N	1	0.62	0.91	JEFFRIES RD	JEFFERIES RD (BACK)	JEFFRIES RD (AHEAD)	0.29	8	4	1	0	0.62	0.91	39.6677441	-78.7061009	39.6718426	-78.705105	860	1	MD 948 AF	MD 948 AF	01000MD00948AF01NN**************	1	1	131	MD	5					2016
86021	6	AL	MD	948	0	AF			S	0	0	0.29	JEFFRIES RD	JEFFRIES RD (AHEAD)	JEFFERIES RD (BACK)	0.29	8	4	1	0	0	0.29	39.6718426	-78.705105	39.6677441	-78.7061009	860	2	MD 948 AF	MD 948 AF	01000MD00948AF01NS**************	1	1	132	MD	6					2016
86111	6	AL	MD	948	0	AL			S	1	1.53	2.02	MV SMITH RD	MV SMITH RD (BACK)	MV SMITH RD (AHEAD)	0.49	8	4	1	0	1.53	2.02	39.6707274	-78.4416324	39.6647311	-78.4371956	861	1	MD 948 AL	MD 948 AL	01000MD00948AL01SS**************	1	1	133	MD	5					2016
86121	6	AL	MD	948	0	AL			N	0	0	0.49	MV SMITH RD	MV SMITH RD (AHEAD)	MV SMITH RD (BACK)	0.49	8	4	1	0	0	0.49	39.6647311	-78.4371956	39.6707274	-78.4416324	861	2	MD 948 AL	MD 948 AL	01000MD00948AL01SN**************	1	1	134	MD	6					2016
86211	6	AL	MD	948	0	AM			W	1	0	0.61	FLINTSTONE DR	STOP SIGN	PRIVATE DRIVE (AHEAD)	0.61	8	4	1	0	0	0.61	39.7076607	-78.5669284	39.7073167	-78.5778283	862	1	MD 948 AM	MD 948 AM	01000MD00948AM01WW**************	1	1	135	MD	5					2016
86221	6	AL	MD	948	0	AM			E	0	0	0.61	FLINTSTONE DR	PRIVATE DRIVE (AHEAD)	BLACK VALLEY RD	0.61	8	4	1	0	0	0.61	39.7074025	-78.5775012	39.7076343	-78.5668963	862	2	MD 948 AM	MD 948 AM	01000MD00948AM01WE**************	1	1	136	MD	6					2016
86311	6	AL	MD	948	0	AO			S	1	0	0.31	BLACK VALLEY RD	FLINTSTONE CREEK RD (BACK)	STOP SIGN	0.31	8	4	1	0	0	0.31	39.7076484	-78.5669297	39.7033185	-78.5680992	863	1	MD 948 AO	MD 948 AO	01000MD00948AO01SS**************	1	1	137	MD	5					2016
86321	6	AL	MD	948	0	AO			N	0	0	0.31	BLACK VALLEY RD	MURLEYS BRANCH RD (AHEAD)	BLACK VALLEY RD	0.31	8	4	1	0	0	0.31	39.7033185	-78.5680992	39.7076343	-78.5668963	863	2	MD 948 AO	MD 948 AO	01000MD00948AO01SN**************	1	1	138	MD	6					2016
86411	6	AL	MD	948	0	C 			N	1	0	0.39	SUNSET ORCHARD RD	STOP SIGN	PVT DR (AHEAD)	0.39	8	4	1	0	0	0.39	39.7047744	-78.6301149	39.7088259	-78.6264259	864	1	MD 948 C	MD 948 C	01000MD00948C 01NN**************	1	1	139	MD	5					2016
86421	6	AL	MD	948	0	C 			S	0	0	0.39	SUNSET ORCHARD RD	PVT DR (AHEAD)	NATIONAL PIKE	0.39	8	4	1	0	0	0.39	39.7088259	-78.6264259	39.7047116	-78.6301155	864	2	MD 948 C	MD 948 C	01000MD00948C 01NS**************	1	1	140	MD	6					2016
86511	6	AL	MD	948	0	M 			W	1	0	0.44	W WILSON RD	NATIONAL PIKE	STREET RD	0.44	8	4	1	0	0	0.44	39.7083575	-78.6014333	39.7074958	-78.6093405	865	1	MD 948 M	MD 948 M	01000MD00948M 01WW**************	1	1	141	MD	5					2016
86521	6	AL	MD	948	0	M 			E	0	0	0.44	W WILSON RD	STREET RD	NATIONAL PIKE	0.44	8	4	1	0	0	0.44	39.7074811	-78.609344	39.7083589	-78.6014097	865	2	MD 948 M	MD 948 M	01000MD00948M 01WE**************	1	1	142	MD	6					2016
86611	6	AL	MD	948	0	Y 			N	1	0	0.37	HIGH GERMANY RD	STOP SIGN	WASHINGTON CO/L	0.37	8	4	1	0	0	0.37	39.7050651	-78.3288677	39.7086555	-78.3314304	866	1	MD 948 Y	MD 948 Y	01000MD00948Y 01NN**************	1	1	143	MD	5					2016
86621	6	AL	MD	948	0	Y 			S	0	0	0.37	HIGH GERMANY RD	STRUC #W0011 SIDELING HILL CREEK	NATIONAL PIKE	0.37	8	4	1	0	0	0.37	39.7085627	-78.3314454	39.7050651	-78.3288677	866	2	MD 948 Y	MD 948 Y	01000MD00948Y 01NS**************	1	1	144	MD	6					2016
86711	6	AL	MD	949	0				N	1	0	0.56	W BRADDOCK RD	STOP SIGN	ROAD END - GATE/BARRICADE	0.56	8	4	1	0	0	0.56	39.6333079	-78.8308674	39.6348455	-78.8402634	867	1	MD 949	MD 949	01000MD00949  01NN**************	1	1	145	MD	5					2016
86721	6	AL	MD	949	0				S	0	0	0.56	W BRADDOCK RD	ROAD END - GATE/BARRICADE	CLUB HOUSE RD (BACK)	0.56	8	4	1	0	0	0.56	39.6347612	-78.8400413	39.6333079	-78.8308674	867	2	MD 949	MD 949	01000MD00949  01NS**************	1	1	146	MD	6					2016
86811	6	AL	MD	949	0	A 			E	1	0	0.12	NO NAME	WINCHESTER RD	ROAD END	0.12	8	4	1	0	0	0.12	39.6361758	-78.8447815	39.6355644	-78.8426878	868	1	MD 949 A	MD 949 A	01000MD00949A 03EE**************	1	1	147	MD	5					2016
86821	6	AL	MD	949	0	A 			W	0	0	0.12	NO NAME	ROAD END	WINCHESTER RD	0.12	8	4	1	0	0	0.12	39.6356241	-78.8428317	39.6360683	-78.8447463	868	2	MD 949 A	MD 949 A	01000MD00949A 03EW**************	1	1	148	MD	6					2016
86911	6	AL	MD	951	0				N	1	0	0.23	OLD CRESAPTOWN RD	STOP SIGN	WINCHESTER RD	0.23	8	4	1	0	0	0.23	39.6087735	-78.8383225	39.6111622	-78.8391487	869	1	MD 951	MD 951	01000MD00951  01NN**************	1	1	149	MD	5					2016
86921	6	AL	MD	951	0				S	0	0	0.23	OLD CRESAPTOWN RD	STOP SIGN	STOP SIGN	0.23	8	4	1	0	0	0.23	39.6111622	-78.8391487	39.6087996	-78.8382868	869	2	MD 951	MD 951	01000MD00951  01NS**************	1	1	150	MD	6					2016
87011	6	AL	MD	952	0				N	1	0	0.31	HILLCREST DR	RAMP 8 FR MD 952 SB TO IS 68 WB	ST PAUL DR (PVT)	0.31	8	4	1	0	0	0.31	39.6659138	-78.7388612	39.6654336	-78.738152	870	1	MD 952	MD 952	01000MD00952  01NN**************	1	1	151	MD	5					2016
87021	6	AL	MD	952	0				S	0	0	0.31	HILLCREST DR	NO NAME	RAMP 7 FR IS 68 WB TO MD 952 SB	0.31	8	4	1	0	0	0.31	39.6653292	-78.7382376	39.6660491	-78.7388642	870	2	MD 952	MD 952	01000MD00952  01NS**************	1	1	152	MD	6					2016
87111	6	AL	MD	952	0	A 			E	1	0	0.18	RANNELLS RD	STOP SIGN	ROAD END - GATE/BARRICADE	0.18	8	4	1	0	0	0.18	39.6664514	-78.736344	39.6685998	-78.7343679	871	1	MD 952 A	MD 952 A	01000MD00952A 01EE**************	1	1	153	MD	5					2016
87121	6	AL	MD	952	0	A 			W	0	0.19	0.37	RANNELLS RD	ROAD END - GATE/BARRICADE	HILLCREST DR	0.18	8	4	1	0	0.19	0.37	39.6685998	-78.7343679	39.6664514	-78.736344	871	2	MD 952 A	MD 952 A	01000MD00952A 01EW**************	1	1	154	MD	6					2016
87211	6	AL	MD	956	0				E	1	0	0.53	PATRIOT PKWY	STOP SIGN	END BRIDGE IN WEST VIRGINIA	0.53	2	5	1	0	0	0.53	39.5668723	-78.8548954	39.562088	-78.8474776	872	1	MD 956	MD 956	01000MD00956  01EE**************	1	1	155	MD	5					2016
87221	6	AL	MD	956	0				W	0	0	0.53	PATRIOT PKWY	END BRIDGE IN WEST VIRGINIA	MCMULLEN HWY	0.53	8	4	1	0	0	0.53	39.5621274	-78.8474784	39.5668723	-78.8548954	872	2	MD 956	MD 956	01000MD00956  01EW**************	1	1	156	MD	6					2016
126011	6	AL	RP	68	0		33	4	E	1	0	0.24	RAMP 4 FR MIDLOTHIAN RD NB TO IS 68 EB	MIDLOTHIAN RD	NATIONAL FREEWAY	0.24	8	4	1	1	0	0.24	39.636703	-78.9486024	39.6357296	-78.9444526	1260	1	IS 68 E33 R4	IS 68 E33 R4	01000RP00068  02EEIS33        04	1	1	157	IS	5					2016
126111	6	AL	RP	68	0		33	5	E	1	0	0.04	RAMP 5 FR MIDLOTHIAN RD TO RAMP 4	MIDLOTHIAN RD	RAMP 4 FR MIDLOTHIAN RD NB TO IS 68 EB	0.04	8	4	1	1	0	0.04	39.637349	-78.9481749	39.6370152	-78.9475326	1261	1	IS 68 E33 R5	IS 68 E33 R5	01000RP00068  02EEIS33        05	1	1	158	IS	5					2016
126211	6	AL	RP	68	0		34	6	E	1	0	0.3	RAMP 6 FR IS 68 EB TO MD 36 SB	NATIONAL FREEWAY	NEW GEORGES CREEK RD	0.3	8	4	1	1	0	0.3	39.6332768	-78.9220531	39.6309011	-78.9174724	1262	1	IS 68 E34 R6	IS 68 E34 R6	01000RP00068  02EEIS34        06	1	1	159	IS	5					2016
126311	6	AL	RP	68	0		39	4	E	1	0	0.26	RAMP 4 FR MD 53 NB TO IS 68 EB	WINCHESTER RD	NATIONAL FREEWAY	0.26	8	4	1	1	0	0.26	39.6342732	-78.8416297	39.6352036	-78.8376165	1263	1	IS 68 E39 R4	IS 68 E39 R4	01000RP00068  02EEIS39        04	1	1	160	IS	5					2016
126411	6	AL	RP	68	0		39	5	E	1	0	0.03	RAMP 5 FR MD 53 SB TO RAMP 4 (TO IS 68)	WINCHESTER RD	RAMP 4 FR MD 53 NB TO IS 68 EB	0.03	8	4	1	1	0	0.03	39.6345572	-78.8423874	39.6346528	-78.8418509	1264	1	IS 68 E39 R5	IS 68 E39 R5	01000RP00068  02EEIS39        05	1	1	161	IS	5					2016
126511	6	AL	RP	68	0		40	2	E	1	0	0.04	RAMP 2 FR RAMP 7 (FR IS 68) TO MD 658	RAMP 7 FR IS 68 WB TO MD 658 SB	CAMPGROUND RD	0.04	8	4	1	1	0	0.04	39.6361055	-78.8300915	39.6361728	-78.8293517	1265	1	IS 68 E40 R2	IS 68 E40 R2	01000RP00068  02EEIS40        02	1	1	162	IS	5					2016
126611	6	AL	RP	68	0		40	3	E	1	0	0.02	RAMP 3 FR RAMP 6 (FR IS 68) TO MD 658 NB	RAMP 6 FR IS 68 EB TO MD 658 SB	VOCKE RD	0.02	8	4	1	1	0	0.02	39.634775	-78.830473	39.6346828	-78.8301426	1266	1	IS 68 E40 R3	IS 68 E40 R3	01000RP00068  02EEIS40        03	1	1	163	IS	5					2016
126711	6	AL	RP	68	0		40	5	E	1	0	0.06	RAMP 5 FR MD 658 SB TO RAMP 4 (TO IS 68)	VOCKE RD	RAMP 4 FR MD 658 NB TO IS 68 EB	0.06	8	4	1	1	0	0.06	39.634601	-78.8297919	39.6346943	-78.8291114	1267	1	IS 68 E40 R5	IS 68 E40 R5	01000RP00068  02EEIS40        05	1	1	164	IS	5					2016
126811	6	AL	RP	68	0		42	1	E	1	0	0.09	RAMP 1 FR OP 466 TO RAMP 4 (TO IS 68 EB)	OLD FLETCHER DR	RAMP 4 FR US 220 NB TO IS 68 EB	0.09	8	4	1	1	0	0.09	39.6446029	-78.7869478	39.6451134	-78.7852493	1268	1	IS 68 E42 R1	IS 68 E42 R1	01000RP00068  02EEIS42        01	1	1	165	IS	5					2016
126911	6	AL	RP	68	0		43C	4	E	1	0	0.17	RAMP 4 FR MD 51 NB TO IS 68 EB	INDUSTRIAL BLVD	NATIONAL FREEWAY	0.17	8	4	1	1	0	0.17	39.6488613	-78.7610854	39.6493923	-78.7580515	1269	1	IS 68 E43C R4	IS 68 E43C R4	01000RP00068  02EEIS43C       04	1	1	166	IS	5					2016
127011	6	AL	RP	68	0		43C	5	E	1	0	0.13	RAMP 5 FR IS 68 EB TO QUEEN CITY DR	NATIONAL FREEWAY	STOP SIGN	0.13	8	4	1	1	0	0.13	39.6490626	-78.761125	39.6493331	-78.7589758	1270	1	IS 68 E43C R5	IS 68 E43C R5	01000RP00068  02EEIS43C       05	1	1	167	IS	5					2016
127111	6	AL	RP	68	0		44	6	E	1	0	0.21	RAMP 6 FR IS 68 EB TO MD 639 SB	NATIONAL FREEWAY	WILLOWBROOK RD	0.21	8	4	1	1	0	0.21	39.6548662	-78.7503589	39.6561178	-78.7472045	1271	1	IS 68 E44 R6	IS 68 E44 R6	01000RP00068  02EEIS44        06	1	1	168	IS	5					2016
127211	6	AL	RP	68	0		45	8	E	1	0	0.09	RAMP 8 FR MD 952 SB TO IS 68 WB	HILLCREST DR (BACK)	NATIONAL FREEWAY	0.09	8	4	1	1	0	0.09	39.6661428	-78.7386682	39.6651323	-78.739757	1272	1	IS 68 E45 R8	IS 68 E45 R8	01000RP00068  02EEIS45        08	1	1	169	IS	5					2016
127311	6	AL	RP	68	0		47	4	E	1	0	0.02	RAMP 4 FR MD 144 NB TO RAMP 5 (TO IS 68)	ALI GHAN RD	RAMP 5 FR MD 144 SB TO IS 68 EB	0.02	8	4	1	1	0	0.02	39.6729701	-78.7157159	39.6728844	-78.7153615	1273	1	IS 68 E47 R4	IS 68 E47 R4	01000RP00068  02EEIS47        04	1	1	170	IS	5					2016
127411	6	AL	RP	68	0		50	4	E	1	0	0.172	RAMP 4 FR MD 948AD NB TO IS 68 EB	PLEASANT VALLEY RD	NATIONAL FREEWAY	0.172	8	4	1	1	0	0.172	39.6937207	-78.6493813	39.6944836	-78.6463307	1274	1	IS 68 E50 R4	IS 68 E50 R4	01000RP00068  02EEIS50        04	1	1	171	IS	5					2016
127511	6	AL	RP	68	0		50	6	E	1	0	0.39	RAMP 6 FR IS 68 EB TO MD 948AD SB	NATIONAL FREEWAY	PLEASANT VALLEY RD	0.39	8	4	1	1	0	0.39	39.6915596	-78.6556732	39.6936765	-78.6493625	1275	1	IS 68 E50 R6	IS 68 E50 R6	01000RP00068  02EEIS50        06	1	1	172	IS	5					2016
127611	6	AL	RP	68	0		52	5	E	1	0	0.23	RAMP 5 FR IS 68 EB TO MD 144	NATIONAL FREEWAY	NATIONAL PIKE	0.23	8	4	1	1	0	0.23	39.7049696	-78.626244	39.7051479	-78.622068	1276	1	IS 68 E52 R5	IS 68 E52 R5	01000RP00068  02EEIS52        05	1	1	173	IS	5					2016
127711	6	AL	RP	68	0		64	4	E	1	0	0.26	RAMP 4 FR MD 948AL NB TO IS 68 EB	MV SMITH RD	NATIONAL FREEWAY	0.26	8	4	1	1	0	0.26	39.6671207	-78.439705	39.6683211	-78.4351896	1277	1	IS 68 E64 R4	IS 68 E64 R4	01000RP00068  02EEIS64        04	1	1	174	IS	5					2016
127811	6	AL	RP	68	0		64	6	E	1	0	0.27	RAMP 6 FR IS 68 EB TO MD 948AL SB	NATIONAL FREEWAY	STOP SIGN	0.27	8	4	1	1	0	0.27	39.6671823	-78.445027	39.6670591	-78.4399366	1278	1	IS 68 E64 R6	IS 68 E64 R6	01000RP00068  02EEIS64        06	1	1	175	IS	5					2016
127911	6	AL	RP	68	0		68	3	E	1	0	0.03	RAMP 3 FR RAMP 6 (FR IS68) TO ORLEANS RD	RAMP 6 FR IS 68 EB TO ORLEANS RD SB	STOP SIGN	0.03	8	4	1	1	0	0.03	39.6985723	-78.381907	39.6983945	-78.3813969	1279	1	IS 68 E68 R3	IS 68 E68 R3	01000RP00068  02EEIS68        03	1	1	176	IS	5					2016
128011	6	AL	RP	68	0		68	4	E	1	0	0.22	RAMP 4 FR ORLEANS RD NB TO IS 68 EB	ORLEANS RD	NATIONAL FREEWAY	0.22	8	4	1	1	0	0.22	39.6986436	-78.3810503	39.7004578	-78.3777737	1280	1	IS 68 E68 R4	IS 68 E68 R4	01000RP00068  02EEIS68        04	1	1	177	IS	5					2016
128111	6	AL	RP	68	0		68	5	E	1	0	0.03	RAMP 5 FR ORLEANS RD TO RAMP 4 (TO IS68)	ORLEANS RD	RAMP 4 FR ORLEANS RD NB TO IS 68 EB	0.03	8	4	1	1	0	0.03	39.6993792	-78.380785	39.6993028	-78.3804162	1281	1	IS 68 E68 R5	IS 68 E68 R5	01000RP00068  02EEIS68        05	1	1	178	IS	5					2016
128211	6	AL	RP	68	0		68	6	E	1	0	0.23	RAMP 6 FR IS 68 EB TO ORLEANS RD SB	NATIONAL FREEWAY	ORLEANS RD	0.23	8	4	1	1	0	0.23	39.6987841	-78.3857292	39.6984351	-78.3817255	1282	1	IS 68 E68 R6	IS 68 E68 R6	01000RP00068  02EEIS68        06	1	1	179	IS	5					2016
128311	6	AL	RP	68	0		72	4	E	1	0	0.26	RAMP 4 FR MD 948Y NB TO IS 68 EB	HIGH GERMANY RD	NATIONAL FREEWAY	0.26	8	4	1	1	0	0.26	39.7054325	-78.3286786	39.7040509	-78.3241104	1283	1	IS 68 E72 R4	IS 68 E72 R4	01000RP00068  02EEIS72        04	1	1	180	IS	5					2016
128411	6	AL	RP	68	0		72	6	E	1	0	0.21	RAMP 6 FR IS 68 EB TO MD 948Y SB	NATIONAL FREEWAY	STOP SIGN	0.21	8	4	1	1	0	0.21	39.7066228	-78.3320916	39.7056642	-78.3293371	1284	1	IS 68 E72 R6	IS 68 E72 R6	01000RP00068  02EEIS72        06	1	1	181	IS	5					2016
128511	6	AL	RP	68	0		33	2	N	1	0	0.25	RAMP 2 FR IS 68 WB TO MD 736 NB	NATIONAL FREEWAY	MIDLOTHIAN RD	0.25	8	4	1	1	0	0.25	39.636256	-78.9448789	39.6392214	-78.945645	1285	1	IS 68 E33 R2	IS 68 E33 R2	01000RP00068  02NNIS33        02	1	1	182	IS	5					2016
128611	6	AL	RP	68	0		33	7	N	1	0	0.04	RAMP 7 FR RAMP 2 (FR IS 68) TO MD 736 SB	RAMP 2 FR IS 68 WB TO MD 736 NB	MIDLOTHIAN RD	0.04	8	4	1	1	0	0.04	39.6383132	-78.9462195	39.6388005	-78.946591	1286	1	IS 68 E33 R7	IS 68 E33 R7	01000RP00068  02NNIS33        07	1	1	183	IS	5					2016
128711	6	AL	RP	68	0		34	4	N	1	0	0.31	RAMP 4 FR MD 36 NB TO IS 68 EB	NEW GEORGES CREEK RD	NATIONAL FREEWAY	0.31	8	4	1	1	0	0.31	39.6308599	-78.9170427	39.632636	-78.9122621	1287	1	IS 68 E34 R4	IS 68 E34 R4	01000RP00068  02NNIS34        04	1	1	184	IS	5					2016
128811	6	AL	RP	68	0		34	5	N	1	0	0.04	RAMP 5 FR MD 36 SB TO RAMP 4 (TO IS 68)	NEW GEORGES CREEK RD	RAMP 4 FR MD 36 NB TO IS 68 EB	0.04	8	4	1	1	0	0.04	39.6316785	-78.917484	39.6317797	-78.9167266	1288	1	IS 68 E34 R5	IS 68 E34 R5	01000RP00068  02NNIS34        05	1	1	185	IS	5					2016
128911	6	AL	RP	68	0		39	2	N	1	0	0.19	RAMP 2 FR IS 68 WB TO US 40AL NB	NATIONAL FREEWAY	NATIONAL PIKE	0.19	8	4	1	1	0	0.19	39.6351666	-78.8350918	39.6360034	-78.8384971	1289	1	IS 68 E39 R2	IS 68 E39 R2	01000RP00068  02NNIS39        02	1	1	186	IS	5					2016
129011	6	AL	RP	68	0		39	3	N	1	0	0.03	RAMP 3 FR RAMP 2 (FR IS 68) TO US 40AL	RAMP 2 FR IS 68 WB TO US 40AL NB	NATIONAL PIKE	0.03	8	4	1	1	0	0.03	39.6362353	-78.8387113	39.6365975	-78.8388223	1290	1	IS 68 E39 R3	IS 68 E39 R3	01000RP00068  02NNIS39        03	1	1	187	IS	5					2016
129111	6	AL	RP	68	0		40	4	N	1	0	0.26	RAMP 4 FR MD 658 NB TO IS 68 EB	VOCKE RD	NATIONAL FREEWAY	0.26	8	4	1	1	0	0.26	39.63363	-78.8304839	39.6354959	-78.8264257	1291	1	IS 68 E40 R4	IS 68 E40 R4	01000RP00068  02NNIS40        04	1	1	188	IS	5					2016
129211	6	AL	RP	68	0		40	7	N	1	0	0.22	RAMP 7 FR IS 68 WB TO MD 658 SB	NATIONAL FREEWAY	VOCKE RD	0.22	8	4	1	1	0	0.22	39.6353065	-78.8307318	39.6355193	-78.8294586	1292	1	IS 68 E40 R7	IS 68 E40 R7	01000RP00068  02NNIS40        07	1	1	189	IS	5					2016
129311	6	AL	RP	68	0		41	2	N	1	0	0.34	RAMP 2 FR IS 68 WB TO BRADDOCK RD	NATIONAL FREEWAY	SETON RD (AHEAD)	0.34	8	4	1	1	0	0.34	39.6406733	-78.8021553	39.6430796	-78.7991696	1293	1	IS 68 E41 R2	IS 68 E41 R2	01000RP00068  02NNIS41        02	1	1	190	IS	5					2016
129411	6	AL	RP	68	0		42	4	N	1	0	0.42	RAMP 4 FR US 220 NB TO IS 68 EB	MCMULLEN HWY	NATIONAL FREEWAY	0.42	8	4	1	1	0	0.42	39.6435979	-78.790878	39.6453263	-78.783469	1294	1	IS 68 E42 R4	IS 68 E42 R4	01000RP00068  02NNIS42        04	1	1	191	IS	5					2016
129511	6	AL	RP	68	0		42	5	N	1	0	0.03	RAMP 5 FR RAMP 2 TO FLETCHER DR	RAMP 2 FR IS 68 WB TO GREENE ST NB	FLETCHER DR	0.03	8	4	1	1	0	0.03	39.6454212	-78.7862613	39.6456028	-78.7867994	1295	1	IS 68 E42 R5	IS 68 E42 R5	01000RP00068  02NNIS42        05	1	1	192	IS	5					2016
129611	6	AL	RP	68	0		43A	4	N	1	0	0.15	RAMP 4 FR KELLY RD NB TO IS 68 EB	KELLY BLVD	NATIONAL FREEWAY	0.15	8	4	1	1	0	0.15	39.6467074	-78.773483	39.6471752	-78.7707427	1296	1	IS 68 E43A R4	IS 68 E43A R4	01000RP00068  02NNIS43A       04	1	1	193	IS	5					2016
129711	6	AL	RP	68	0		43A	5	N	1	0	0.02	RAMP 5 FR JOHNSON ST SB TO IS 68 EB	S JOHNSON ST	NATIONAL FREEWAY	0.02	8	4	1	1	0	0.02	39.6481629	-78.7687427	39.6484335	-78.7688157	1297	1	IS 68 E43A R5	IS 68 E43A R5	01000RP00068  02NNIS43A       05	1	1	194	IS	5					2016
129811	6	AL	RP	68	0		43D	4	N	1	0	0.02	RAMP 4 FR MARYLAND AVE TO IS 68 EB	MARYLAND AVE (BACK)	NATIONAL FREEWAY	0.02	8	4	1	1	0	0.02	39.6497693	-78.7553872	39.6500179	-78.7552395	1298	1	IS 68 E43D R4	IS 68 E43D R4	01000RP00068  02NNIS43D       04	1	1	195	IS	5					2016
129911	6	AL	RP	68	0		44	1	N	1	0	0.02	RAMP 1 FR US 40AL TO RAMP 8 (TO IS 68)	BALTIMORE AVE	RAMP 8 FR US 40AL SB TO IS 68 WB	0.02	8	4	1	1	0	0.02	39.6572559	-78.7487765	39.657004	-78.7489645	1299	1	IS 68 E44 R1	IS 68 E44 R1	01000RP00068  02NNIS44        01	1	1	196	IS	5					2016
130011	6	AL	RP	68	0		44	3	N	1	0	0.02	RAMP 3 FR RAMP 6 (FR IS 68) TO MD 639 NB	RAMP 6 FR IS 68 EB TO MD 639 SB	STOP SIGN	0.02	8	4	1	1	0	0.02	39.6563057	-78.7480901	39.6565103	-78.7477741	1300	1	IS 68 E44 R3	IS 68 E44 R3	01000RP00068  02NNIS44        03	1	1	197	IS	5					2016
130111	6	AL	RP	68	0		44	4	N	1	0	0.265	RAMP 4 FR MD 639 NB TO IS 68 EB	WILLOWBROOK RD	NATIONAL FREEWAY	0.265	8	4	1	1	0	0.265	39.6562274	-78.7471793	39.659545	-78.7453211	1301	1	IS 68 E44 R4	IS 68 E44 R4	01000RP00068  02NNIS44        04	1	1	198	IS	5					2016
130211	6	AL	RP	68	0		44	5	N	1	0	0.02	RAMP 5 FR MD 639 SB TO RAMP 4 (TO IS 68)	WILLOWBROOK RD	RAMP 4 FR MD 639 NB TO IS 68 EB	0.02	8	4	1	1	0	0.02	39.6566384	-78.7476199	39.6568596	-78.7473682	1302	1	IS 68 E44 R5	IS 68 E44 R5	01000RP00068  02NNIS44        05	1	1	199	IS	5					2016
130311	6	AL	RP	68	0		47	2	N	1	0	0.14	RAMP 2 FR RAMP 7 (FR IS 68) TO MD 144 NB	RAMP 7 FR IS 68 WB TO MD 144 SB	NATIONAL PIKE	0.14	8	4	1	1	0	0.14	39.6725114	-78.7121779	39.6741438	-78.7113553	1303	1	IS 68 E47 R2	IS 68 E47 R2	01000RP00068  02NNIS47        02	1	1	200	IS	5					2016
130411	6	AL	RP	68	0		47	7	N	1	0	0.29	RAMP 7 FR IS 68 WB TO MD 144 SB	NATIONAL FREEWAY	STOP SIGN	0.29	8	4	1	1	0	0.29	39.6707543	-78.7084169	39.6728716	-78.7126657	1304	1	IS 68 E47 R7	IS 68 E47 R7	01000RP00068  02NNIS47        07	1	1	201	IS	5					2016
130511	6	AL	RP	68	0		56	4	N	1	0	0.25	RAMP 4 FR MD 144 NB TO IS 68 EB	NATIONAL PIKE	NATIONAL FREEWAY	0.25	8	4	1	1	0	0.25	39.7044356	-78.571444	39.7051348	-78.5680553	1305	1	IS 68 E56 R4	IS 68 E56 R4	01000RP00068  02NNIS56        04	1	1	202	IS	5					2016
130611	6	AL	RP	68	0		56	5	N	1	0	0.17	RAMP 5 FR IS 68 WB TO MD 948AM	NATIONAL FREEWAY	STOP SIGN	0.17	8	4	1	1	0	0.17	39.7059439	-78.5704993	39.7075086	-78.57158	1306	1	IS 68 E56 R5	IS 68 E56 R5	01000RP00068  02NNIS56        05	1	1	203	IS	5					2016
130711	6	AL	RP	68	0		62	2	N	1	0	0.28	RAMP 2 FR IS 68 WB TO US 40SC NB	NATIONAL FREEWAY	STOP SIGN	0.28	8	4	1	1	0	0.28	39.6729175	-78.4557206	39.6764997	-78.4580335	1307	1	IS 68 E62 R2	IS 68 E62 R2	01000RP00068  02NNIS62        02	1	1	204	IS	5					2016
130811	6	AL	RP	68	0		64	7	N	1	0	0.22	RAMP 7 FR IS 68 WB TO MD 948AL SB	NATIONAL FREEWAY	MV SMITH RD	0.22	8	4	1	1	0	0.22	39.6677918	-78.4411305	39.6692529	-78.4428043	1308	1	IS 68 E64 R7	IS 68 E64 R7	01000RP00068  02NNIS64        07	1	1	205	IS	5					2016
130911	6	AL	RP	68	0		68	2	N	1	0	0.23	RAMP 2 FR IS 68 WB TO ORLEANS RD NB	NATIONAL FREEWAY	ORLEANS RD	0.23	8	4	1	1	0	0.23	39.7010792	-78.3763359	39.7024174	-78.3794708	1309	1	IS 68 E68 R2	IS 68 E68 R2	01000RP00068  02NNIS68        02	1	1	206	IS	5					2016
131011	6	AL	RP	68	0		72	2	N	1	0	0.24	RAMP 2 FR IS 68 WB TO MD 948Y NB	NATIONAL FREEWAY	STOP SIGN	0.24	8	4	1	1	0	0.24	39.7043984	-78.3241026	39.7064764	-78.3276657	1310	1	IS 68 E72 R2	IS 68 E72 R2	01000RP00068  02NNIS72        02	1	1	207	IS	5					2016
131111	6	AL	RP	68	0		33	6	S	1	0	0.33	RAMP 6 FR IS 68 EB TO MIDLOTHIAN RD SB	NATIONAL FREEWAY	MIDLOTHIAN RD	0.33	8	4	1	1	0	0.33	39.6414277	-78.9511917	39.6370857	-78.9487494	1311	1	IS 68 E33 R6	IS 68 E33 R6	01000RP00068  02SSIS33        06	1	1	208	IS	5					2016
131211	6	AL	RP	68	0		34	8	S	1	0	0.29	RAMP 8 FR MD 36 SB TO IS 68 WB	NEW GEORGES CREEK RD	NATIONAL FREEWAY	0.29	8	4	1	1	0	0.29	39.6346538	-78.9182091	39.6336802	-78.922645	1312	1	IS 68 E34 R8	IS 68 E34 R8	01000RP00068  02SSIS34        08	1	1	209	IS	5					2016
131311	6	AL	RP	68	0		39	1	S	1	0	0.24	RAMP 1 FR US 40AL NB TO IS 68 WB	NATIONAL PIKE	NATIONAL FREEWAY	0.24	8	4	1	1	0	0.24	39.636505	-78.8394739	39.6352463	-78.842419	1313	1	IS 68 E39 R1	IS 68 E39 R1	01000RP00068  02SSIS39        01	1	1	210	IS	5					2016
131411	6	AL	RP	68	0		40	6	S	1	0	0.15	RAMP 6 FR IS 68 EB TO MD 658 SB	NATIONAL FREEWAY	VOCKE RD	0.15	8	4	1	1	0	0.15	39.634961	-78.832234	39.6341918	-78.8301738	1314	1	IS 68 E40 R6	IS 68 E40 R6	01000RP00068  02SSIS40        06	1	1	211	IS	5					2016
131611	6	AL	RP	68	0		42	6	S	1	0	0.29	RAMP 6 FR IS 68 EB TO US 220 SB	NATIONAL FREEWAY	MCMULLEN HWY	0.29	8	4	1	1	0	0.29	39.6423107	-78.7959799	39.6435657	-78.7912238	1316	1	IS 68 E42 R6	IS 68 E42 R6	01000RP00068  02SSIS42        06	1	1	212	IS	5					2016
131711	6	AL	RP	68	0		43A	1	S	1	0	0.06	RAMP 1 FR LEE ST NB TO IS 68 WB	S LEE ST (BACK)	NATIONAL FREEWAY	0.06	8	4	1	1	0	0.06	39.6480755	-78.7706001	39.6472883	-78.770973	1317	1	IS 68 E43A R1	IS 68 E43A R1	01000RP00068  02SSIS43A       01	1	1	213	IS	5					2016
131811	6	AL	RP	68	0		43A	3	S	1	0	0.02	RAMP 3 FR IS 68 EB TO JOHNSON ST NB	NATIONAL FREEWAY	S JOHNSON ST	0.02	8	4	1	1	0	0.02	39.6482021	-78.7690985	39.6481698	-78.768747	1318	1	IS 68 E43A R3	IS 68 E43A R3	01000RP00068  02SSIS43A       03	1	1	214	IS	5					2016
131911	6	AL	RP	68	0		43B	3	S	1	0	0.01	RAMP 3 FR RAMP 6 (FR IS68) TO WINSTON ST	RAMP 6 FR IS 68 EB TO WINSTON ST	STOP SIGN	0.01	8	4	1	1	0	0.01	39.6482298	-78.7608283	39.6481357	-78.7606566	1319	1	IS 68 E43B R3	IS 68 E43B R3	01000RP00068  02SSIS43B       03	1	1	215	IS	5					2016
132011	6	AL	RP	68	0		43B	6	S	1	0	0.11	RAMP 6 FR IS 68 EB TO WINSTON ST	NATIONAL FREEWAY	WINSTON ST	0.11	8	4	1	1	0	0.11	39.6488	-78.7621462	39.6481084	-78.7607463	1320	1	IS 68 E43B R6	IS 68 E43B R6	01000RP00068  02SSIS43B       06	1	1	216	IS	5					2016
132111	6	AL	RP	68	0		43D	6	S	1	0	0.02	RAMP 6 FR IS 68 EB TO MARYLAND AVE	NATIONAL FREEWAY	EMILY ST	0.02	8	4	1	1	0	0.02	39.649783	-78.7558906	39.6498292	-78.7555445	1321	1	IS 68 E43D R6	IS 68 E43D R6	01000RP00068  02SSIS43D       06	1	1	217	IS	5					2016
132211	6	AL	RP	68	0		43D	8	S	1	0	0.04	RAMP 8 FR MARYLAND AVE TO IS 68 WB	CENTRAL AVE	NATIONAL FREEWAY	0.04	8	4	1	1	0	0.04	39.6504976	-78.7557004	39.6500199	-78.7555917	1322	1	IS 68 E43D R8	IS 68 E43D R8	01000RP00068  02SSIS43D       08	1	1	218	IS	5					2016
132311	6	AL	RP	68	0		44	7	S	1	0	0.02	RAMP 7 FR RAMP 2 (FR IS 68) TO US 40AL	RAMP 2 FR IS 68 WB TO US 40AL NB	STOP SIGN	0.02	8	4	1	1	0	0.02	39.6576154	-78.7482976	39.657426	-78.7486187	1323	1	IS 68 E44 R7	IS 68 E44 R7	01000RP00068  02SSIS44        07	1	1	219	IS	5					2016
132411	6	AL	RP	68	0		44	8	S	1	0	0.21	RAMP 8 FR US 40AL SB TO IS 68 WB	BALTIMORE AVE	NATIONAL FREEWAY	0.21	8	4	1	1	0	0.21	39.6573529	-78.7493462	39.6549387	-78.7504809	1324	1	IS 68 E44 R8	IS 68 E44 R8	01000RP00068  02SSIS44        08	1	1	220	IS	5					2016
132511	6	AL	RP	68	0		45	6	S	1	0	0.02	RAMP 6 FR IS 68 EB TO MD 952 SB	NATIONAL FREEWAY	HILLCREST DR	0.02	8	4	1	1	0	0.02	39.6661277	-78.7375119	39.6660211	-78.7376379	1325	1	IS 68 E45 R6	IS 68 E45 R6	01000RP00068  02SSIS45        06	1	1	221	IS	5					2016
132611	6	AL	RP	68	0		46	3	S	1	0	0.09	RAMP 3 FR IS 68 EB TO MD 144	NATIONAL FREEWAY	STOP SIGN	0.09	8	4	1	1	0	0.09	39.6731782	-78.7245275	39.6730051	-78.7228799	1326	1	IS 68 E46 R3	IS 68 E46 R3	01000RP00068  02SSIS46        03	1	1	222	IS	5					2016
132711	6	AL	RP	68	0		46	6	S	1	0	0.13	RAMP 6 FR MD 144 SB TO RAMP 7 (TO IS 68)	NAVES CROSSROAD	RAMP 7 FR MD 144 NB TO IS 68 WB	0.13	8	4	1	1	0	0.13	39.6760196	-78.7304259	39.6745497	-78.7301082	1327	1	IS 68 E46 R6	IS 68 E46 R6	01000RP00068  02SSIS46        06	1	1	223	IS	5					2016
132811	6	AL	RP	68	0		46	7	S	1	0	0.25	RAMP 7 FR MD 144 NB TO IS 68 WB	NAVES CROSSROAD	NATIONAL FREEWAY	0.25	8	4	1	1	0	0.25	39.6753174	-78.7293494	39.6723485	-78.7320185	1328	1	IS 68 E46 R7	IS 68 E46 R7	01000RP00068  02SSIS46        07	1	1	224	IS	5					2016
132911	6	AL	RP	68	0		47	5	S	1	0	0.39	RAMP 5 FR MD 144 SB TO IS 68 EB	ALI GHAN RD	NATIONAL FREEWAY	0.39	8	4	1	1	0	0.39	39.6728822	-78.7150185	39.6705897	-78.7086806	1329	1	IS 68 E47 R5	IS 68 E47 R5	01000RP00068  02SSIS47        05	1	1	225	IS	5					2016
133011	6	AL	RP	68	0		52	7	S	1	0	0.48	RAMP 7 FR MD 948C TO IS 68 WB	SUNSET ORCHARD RD	NATIONAL FREEWAY	0.48	8	4	1	1	0	0.48	39.7050698	-78.6304349	39.6995127	-78.6357084	1330	1	IS 68 E52 R7	IS 68 E52 R7	01000RP00068  02SSIS52        07	1	1	226	IS	5					2016
133021	6	AL	RP	68	0		52	7	N	0	0.2	0.48	RAMP 7 FR MD 948C TO IS 68 WB	SIGN MARTINS MTN ELEV 1636 FT	ALI GHAN RD	0.28	8	4	1	1	0.2	0.48	39.701705	-78.633452	39.7050698	-78.6304349	1330	2	IS 68 E52 R7	IS 68 E52 R7	01000RP00068  02SNIS52        07	0	1	227	IS	6					2016
133111	6	AL	RP	68	0		56	6	S	1	0	0.22	RAMP 6 FR IS 68 EB TO MD 144 SB	NATIONAL FREEWAY	STOP SIGN	0.22	8	4	1	1	0	0.22	39.7061499	-78.5744082	39.7050361	-78.5713897	1331	1	IS 68 E56 R6	IS 68 E56 R6	01000RP00068  02SSIS56        06	1	1	228	IS	5					2016
133211	6	AL	RP	68	0		56	7	S	1	0	0.22	RAMP 7 FR MD 948AM TO IS 68 WB	FLINTSTONE DR	NATIONAL FREEWAY	0.22	8	4	1	1	0	0.22	39.7079187	-78.5716393	39.7063259	-78.574398	1332	1	IS 68 E56 R7	IS 68 E56 R7	01000RP00068  02SSIS56        07	1	1	229	IS	5					2016
133311	6	AL	RP	68	0		62	6	S	1	0	0.35	RAMP 6 FR IS 68 EB TO US 40SC SB	NATIONAL FREEWAY	STOP SIGN	0.35	8	4	1	1	0	0.35	39.6776679	-78.4637392	39.6744014	-78.4596713	1333	1	IS 68 E62 R6	IS 68 E62 R6	01000RP00068  02SSIS62        06	1	1	230	IS	5					2016
133411	6	AL	RP	68	0		64	8	S	1	0	0.37	RAMP 8 FR MD 948AL SB TO IS 68 WB	MV SMITH RD	NATIONAL FREEWAY	0.37	8	4	1	1	0	0.37	39.6695122	-78.4417696	39.6674674	-78.4468216	1334	1	IS 68 E64 R8	IS 68 E64 R8	01000RP00068  02SSIS64        08	1	1	231	IS	5					2016
133511	6	AL	RP	68	0		68	8	S	1	0	0.22	RAMP 8 FR ORLEANS RD SB TO IS 68 WB	ORLEANS RD	NATIONAL FREEWAY	0.22	8	4	1	1	0	0.22	39.7020049	-78.3800009	39.7000406	-78.3831324	1335	1	IS 68 E68 R8	IS 68 E68 R8	01000RP00068  02SSIS68        08	1	1	232	IS	5					2016
133611	6	AL	RP	68	0		72	8	S	1	0	0.19	RAMP 8 FR MD 948Y SB TO IS 68 WB	HIGH GERMANY RD	NATIONAL FREEWAY	0.19	8	4	1	1	0	0.19	39.707397	-78.3311787	39.7069866	-78.3347203	1336	1	IS 68 E72 R8	IS 68 E72 R8	01000RP00068  02SSIS72        08	1	1	233	IS	5					2016
133711	6	AL	RP	68	0		33	1	W	1	0	0.04	RAMP 1 FR MD 736 NB TO RAMP 8 (TO IS 68)	RAMP 7 FR RAMP 2 (FR IS 68) TO MD 736 SB	RAMP 8 FR MD 736 SB TO IS 68 WB	0.04	8	4	1	1	0	0.04	39.6388005	-78.946591	39.6392639	-78.9471076	1337	1	IS 68 E33 R1	IS 68 E33 R1	01000RP00068  02WWIS33        01	1	1	234	IS	5					2016
133811	6	AL	RP	68	0		33	3	W	1	0	0.05	RAMP 3 FR RAMP 6 TO MIDLOTHIAN RD	RAMP 6 FR IS 68 EB TO MIDLOTHIAN RD SB	STOP SIGN	0.05	8	4	1	1	0	0.05	39.6378562	-78.9489835	39.637366	-78.9483284	1338	1	IS 68 E33 R3	IS 68 E33 R3	01000RP00068  02WWIS33        03	1	1	235	IS	5					2016
133911	6	AL	RP	68	0		33	8	W	1	0	0.33	RAMP 8 FR MD 736 SB TO IS 68 WB	MIDLOTHIAN RD	NATIONAL FREEWAY	0.33	8	4	1	1	0	0.33	39.6392171	-78.9457912	39.6416142	-78.9507802	1339	1	IS 68 E33 R8	IS 68 E33 R8	01000RP00068  02WWIS33        08	1	1	236	IS	5					2016
134011	6	AL	RP	68	0		34	1	W	1	0	0.06	RAMP 1 FR MD 36 NB TO RAMP 8 (TO IS 68)	RAMP 7 FR RAMP 2 (FR IS 68) TO MD 36 SB	RAMP 8 FR MD 36 SB TO IS 68 WB	0.06	8	4	1	1	0	0.06	39.6336114	-78.9180717	39.633664	-78.9192008	1340	1	IS 68 E34 R1	IS 68 E34 R1	01000RP00068  02WWIS34        01	1	1	237	IS	5					2016
134111	6	AL	RP	68	0		34	2	W	1	0	0.37	RAMP 2 FR IS 68 WB TO MD 36 NB	NATIONAL FREEWAY	NEW GEORGES CREEK RD	0.37	8	4	1	1	0	0.37	39.6331141	-78.911942	39.6348311	-78.9179057	1341	1	IS 68 E34 R2	IS 68 E34 R2	01000RP00068  02WWIS34        02	1	1	238	IS	5					2016
134211	6	AL	RP	68	0		34	3	W	1	0	0.04	RAMP 3 FR RAMP 6 (FR IS 68) TO MD 36 NB	RAMP 6 FR IS 68 EB TO MD 36 SB	NEW GEORGES CREEK RD	0.04	8	4	1	1	0	0.04	39.6316046	-78.9183464	39.631678	-78.9176095	1342	1	IS 68 E34 R3	IS 68 E34 R3	01000RP00068  02WWIS34        03	1	1	239	IS	5					2016
134311	6	AL	RP	68	0		34	7	W	1	0	0.04	RAMP 7 FR RAMP 2 (FR IS 68) TO MD 36 SB	RAMP 2 FR IS 68 WB TO MD 36 NB	NEW GEORGES CREEK RD	0.04	8	4	1	1	0	0.04	39.6335275	-78.9170172	39.6336073	-78.9177667	1343	1	IS 68 E34 R7	IS 68 E34 R7	01000RP00068  02WWIS34        07	1	1	240	IS	5					2016
134411	6	AL	RP	68	0		39	8	W	1	0	0.02	RAMP 8 FR US 40AL TO RAMP 1 (TO IS 68)	NATIONAL PIKE	RAMP 1 FR US 40AL NB TO IS 68 WB	0.02	8	4	1	1	0	0.02	39.6366164	-78.8388559	39.6363326	-78.8389235	1344	1	IS 68 E39 R8	IS 68 E39 R8	01000RP00068  02WWIS39        08	1	1	241	IS	5					2016
134511	6	AL	RP	68	0		42	2	W	1	0	0.19	RAMP 2 FR IS 68 WB TO GREENE ST NB	NATIONAL FREEWAY	GREENE ST	0.19	8	4	1	1	0	0.19	39.6454333	-78.783801	39.6454288	-78.7874042	1345	1	IS 68 E42 R2	IS 68 E42 R2	01000RP00068  02WWIS42        02	1	1	242	IS	5					2016
134611	6	AL	RP	68	0		42	7	W	1	0	0.03	RAMP 7 FR RAMP 2 (FR IS68) TO GREENE ST	RAMP 2 FR IS 68 WB TO GREENE ST NB	GREENE ST	0.03	8	4	1	1	0	0.03	39.6454117	-78.7874483	39.645391	-78.7880465	1346	1	IS 68 E42 R7	IS 68 E42 R7	01000RP00068  02WWIS42        07	1	1	243	IS	5					2016
134711	6	AL	RP	68	0		42	8	W	1	0	0.16	RAMP 8 FR GREENE ST SB TO IS 68 WB	GREENE ST	NATIONAL FREEWAY	0.16	8	4	1	1	0	0.16	39.645325	-78.7884404	39.6444469	-78.7911547	1347	1	IS 68 E42 R8	IS 68 E42 R8	01000RP00068  02WWIS42        08	1	1	244	IS	5					2016
134811	6	AL	RP	68	0		43A	2	W	1	0	0.07	RAMP 2 FR IS 68 WB TO BEALL ST NB	NATIONAL FREEWAY	STOP SIGN	0.07	8	4	1	1	0	0.07	39.6482085	-78.7693653	39.6480755	-78.7706001	1348	1	IS 68 E43A R2	IS 68 E43A R2	01000RP00068  02WWIS43A       02	1	1	245	IS	5					2016
134911	6	AL	RP	68	0		43B	1	W	1	0	0.05	RAMP 1 FR CENTRE ST TO RAMP 8 (TO IS 68)	S CENTRE ST	RAMP 8 FR HARRISON ST TO IS 68 WB	0.05	8	4	1	1	0	0.05	39.6493006	-78.7601702	39.6493987	-78.7610634	1349	1	IS 68 E43B R1	IS 68 E43B R1	01000RP00068  02WWIS43B       01	1	1	246	IS	5					2016
135011	6	AL	RP	68	0		43B	7	W	1	0	0.13	RAMP 7 FR IS 68 WB TO HOWARD ST	NATIONAL FREEWAY	STOP SIGN	0.13	8	4	1	1	0	0.13	39.6493812	-78.7604375	39.6485709	-78.7623168	1350	1	IS 68 E43B R7	IS 68 E43B R7	01000RP00068  02WWIS43B       07	1	1	247	IS	5					2016
135111	6	AL	RP	68	0		43B	8	W	1	0	0.13	RAMP 8 FR HARRISON ST TO IS 68 WB	S LIBERTY ST (BACK)	NATIONAL FREEWAY	0.13	8	4	1	1	0	0.13	39.6499634	-78.7609304	39.648911	-78.7625355	1351	1	IS 68 E43B R8	IS 68 E43B R8	01000RP00068  02WWIS43B       08	1	1	248	IS	5					2016
135211	6	AL	RP	68	0		43C	2	W	1	0	0.17	RAMP 2 FR IS 68 WB TO HARRISON ST	NATIONAL FREEWAY	STOP SIGN	0.17	8	4	1	1	0	0.17	39.6495835	-78.7580339	39.6499561	-78.760924	1352	1	IS 68 E43C R2	IS 68 E43C R2	01000RP00068  02WWIS43C       02	1	1	249	IS	5					2016
135311	6	AL	RP	68	0		43D	2	W	1	0	0.04	RAMP 2 FR IS 68 WB TO MARYLAND AVE	NATIONAL FREEWAY	STOP SIGN	0.04	8	4	1	1	0	0.04	39.6503377	-78.7550178	39.6504825	-78.7556755	1353	1	IS 68 E43D R2	IS 68 E43D R2	01000RP00068  02WWIS43D       02	1	1	250	IS	5					2016
135411	6	AL	RP	68	0		44	2	W	1	0	0.19	RAMP 2 FR IS 68 WB TO US 40AL NB	NATIONAL FREEWAY	BALTIMORE AVE	0.19	8	4	1	1	0	0.19	39.6588391	-78.7462983	39.6574921	-78.7489938	1354	1	IS 68 E44 R2	IS 68 E44 R2	01000RP00068  02WWIS44        02	1	1	251	IS	5					2016
135511	6	AL	RP	68	0		45	4	W	1	0	0.02	RAMP 4 FR MD 952 NB TO IS 68 EB	HILLCREST DR	NATIONAL FREEWAY	0.02	8	4	1	1	0	0.02	39.6660215	-78.7370284	39.6663376	-78.7370985	1355	1	IS 68 E45 R4	IS 68 E45 R4	01000RP00068  02WWIS45        04	1	1	252	IS	5					2016
135611	6	AL	RP	68	0		45	7	W	1	0	0.03	RAMP 7 FR IS 68 WB TO MD 952 SB	NATIONAL FREEWAY	HILLCREST DR (AHEAD)	0.03	8	4	1	1	0	0.03	39.6658948	-78.7384219	39.6660296	-78.7383175	1356	1	IS 68 E45 R7	IS 68 E45 R7	01000RP00068  02WWIS45        07	1	1	253	IS	5					2016
135711	6	AL	RP	68	0		46	4	W	1	0	0.18	RAMP 4 FR IS 68 WB TO MD 144 NB	NATIONAL FREEWAY	STOP SIGN	0.18	8	4	1	1	0	0.18	39.6734138	-78.7285204	39.6751768	-78.7293445	1357	1	IS 68 E46 R4	IS 68 E46 R4	01000RP00068  02WWIS46        04	1	1	254	IS	5					2016
135811	6	AL	RP	68	0		47	1	W	1	0	0.21	RAMP 1 FR MD 144 NB TO IS 68 WB	NATIONAL PIKE	NATIONAL FREEWAY	0.21	8	4	1	1	0	0.21	39.6731697	-78.7130201	39.6737016	-78.7169187	1358	1	IS 68 E47 R1	IS 68 E47 R1	01000RP00068  02WWIS47        01	1	1	255	IS	5					2016
135821	6	AL	RP	68	0		47	1	E	0	0.11	0.21	RAMP 1 FR MD 144 NB TO IS 68 WB	DEHAVEN RD	NATIONAL PIKE	0.1	8	4	1	1	0.11	0.21	39.673494	-78.714787	39.6731697	-78.7130201	1358	2	IS 68 E47 R1	IS 68 E47 R1	01000RP00068  02WEIS47        01	1	1	256	IS	6					2016
135911	6	AL	RP	68	0		47	8	W	1	0	0.49	RAMP 8 FR US 220 SB TO IS 68 WB	NO NAME	NATIONAL FREEWAY	0.49	8	4	1	1	0	0.49	39.6782894	-78.7163662	39.6734314	-78.7223	1359	1	IS 68 E47 R8	IS 68 E47 R8	01000RP00068  02WWIS47        08	1	1	257	IS	5					2016
136011	6	AL	RP	68	0		50	2	W	1	0	0.23	RAMP 2 FR IS 68 WB TO MD 948AD NB	NATIONAL FREEWAY	STOP SIGN	0.23	8	4	1	1	0	0.23	39.6949702	-78.6459751	39.6951249	-78.6502658	1360	1	IS 68 E50 R2	IS 68 E50 R2	01000RP00068  02WWIS50        02	1	1	258	IS	5					2016
136111	6	AL	RP	68	0		50	8	W	1	0	0.36	RAMP 8 FR MD 948AD SB TO IS 68 WB	PLEASANT VALLEY RD	NATIONAL FREEWAY	0.36	8	4	1	1	0	0.36	39.6950626	-78.6504723	39.6918656	-78.6557759	1361	1	IS 68 E50 R8	IS 68 E50 R8	01000RP00068  02WWIS50        08	1	1	259	IS	5					2016
136211	6	AL	RP	68	0		62	5	W	1	0	0.21	RAMP 5 FR US 40SC SB TO IS 68 EB	NATIONAL PIKE	NATIONAL FREEWAY	0.21	8	4	1	1	0	0.21	39.6744299	-78.459305	39.676016	-78.4589791	1362	1	IS 68 E62 R5	IS 68 E62 R5	01000RP00068  02WWIS62        05	1	1	260	IS	5					2016
136311	6	AL	RP	68	0		62	8	W	1	0	0.24	RAMP 8 FR US 40SC SB TO IS 68 WB	NATIONAL PIKE	NATIONAL FREEWAY	0.24	8	4	1	1	0	0.24	39.6766299	-78.458363	39.6774827	-78.4625988	1363	1	IS 68 E62 R8	IS 68 E62 R8	01000RP00068  02WWIS62        08	1	1	261	IS	5					2016
136411	6	AL	RP	68	0		68	1	W	1	0	0.03	RAMP 1 FR ORLEANS RD TO RAMP 8 (TO IS68)	ORLEANS RD	RAMP 8 FR ORLEANS RD SB TO IS 68 WB	0.03	8	4	1	1	0	0.03	39.7012695	-78.3802019	39.7012038	-78.3806915	1364	1	IS 68 E68 R1	IS 68 E68 R1	01000RP00068  02WWIS68        01	1	1	262	IS	5					2016
136511	6	AL	RP	68	0		68	7	W	1	0	0.03	RAMP 7 FR RAMP 2 (FR IS68) TO ORLEANS RD	RAMP 2 FR IS 68 WB TO ORLEANS RD NB	STOP SIGN	0.03	8	4	1	1	0	0.03	39.7020177	-78.3791829	39.7021854	-78.3797168	1365	1	IS 68 E68 R7	IS 68 E68 R7	01000RP00068  02WWIS68        07	1	1	263	IS	5					2016
139711	6	AL	US	40	0	AB			N	1	0	0.04	NO NAME	STOP SIGN	ENT TO RESTAURANT	0.04	8	4	1	0	0	0.04	39.6725413	-78.7254043	39.6730238	-78.7251304	1397	1	US 40 AB	US 40 AB	01000US00040AB04NN**************	1	1	264	US	5					2016
139721	6	AL	US	40	0	AB			S	0	0	0.04	NO NAME	ENT TO RESTAURANT	ALI GHAN RD	0.04	8	4	1	0	0	0.04	39.6730054	-78.7253411	39.6725413	-78.7254043	1397	2	US 40 AB	US 40 AB	01000US00040AB04NS**************	1	1	265	US	6					2016
139811	6	AL	US	40	0	AF			N	1	0	0.02	NO NAME	STOP SIGN	STOP SIGN	0.02	8	4	1	0	0	0.02	39.6962113	-78.554684	39.6965071	-78.5545268	1398	1	US 40 AF	US 40 AF	01000US00040AF04NN**************	1	1	266	US	5					2016
139821	6	AL	US	40	0	AF			S	0	0	0.02	NO NAME	OLD NATIONAL PIKE	GILPIN RD	0.02	8	4	1	0	0	0.02	39.6965466	-78.5545245	39.6962753	-78.5546853	1398	2	US 40 AF	US 40 AF	01000US00040AF04NS**************	1	1	267	US	6					2016
139911	6	AL	US	40	0	AL			E	1	0	3.15	NATIONAL HWY	GARRETT CO/L	OUT CORP LMTS FROSTBURG	3.15	7	1	1	1	0	3.15	39.6762912	-78.9550204	39.651285	-78.911222	1399	1	US 40 AL	US 40 AL	01000US00040AL01EE**************	1	1	268	US	5					2016
139912	6	AL	US	40	0	AL			E	1	3.15	12.01	NATIONAL PIKE	OUT CORP LMTS FROSTBURG	END STATE MAINTENANCE	8.86	5	1	1	1	3.15	12.01	39.651285	-78.911222	39.661874	-78.779869	1399	1	US 40 AL	US 40 AL	01000US00040AL01EE**************	1	1	269	US	5					2016
139913	6	AL	US	40	0	AL			E	1	12.01	12.24	MECHANIC ST	END STATE MAINTENANCE	N MECHANIC ST	0.23	1	1	4	1	12.01	12.24	39.661874	-78.779869	39.659817	-78.776017	1399	1	US 40 AL	US 40 AL	01000US00040AL01EE**************	1	1	270	US	5					2016
139914	6	AL	US	40	0	AL			E	1	12.24	13.95	HENDERSON AVE	N MECHANIC ST	BEGIN STATE MAINTENANCE	1.71	2	5	4	1	12.24	13.95	39.659817	-78.776017	39.657521	-78.750053	1399	1	US 40 AL	US 40 AL	01000US00040AL01EE**************	1	1	271	US	5	SIGN: PICNIC AREA	12.145	RAMP 8 FR US 40AL SB TO IS 68 WB	13.992	2016
139915	6	AL	US	40	0	AL			E	1	13.95	14.07	BALTIMORE AVE	BEGIN STATE MAINTENANCE	EXIT #44	0.12	7	1	1	1	13.95	14.07	39.657521	-78.750053	39.6569216	-78.748106	1399	1	US 40 AL	US 40 AL	01000US00040AL01EE**************	1	1	272	US	5					2016
139921	6	AL	US	40	0	AL			W	0	0	0.12	BALTIMORE AVE	EXIT #44	BEGIN STATE MAINTENANCE	0.12	3	3	1	1	13.948	13.882	39.6570216	-78.7481044	39.6575163	-78.7500503	1399	2	US 40 AL	US 40 AL	01000US00040AL01EW**************	1	1	273	US	6					2016
139922	6	AL	US	40	0	AL			W	0	2.06	14.07	NATIONAL HWY	END STATE MAINTENANCE	GARRETT CO/L	12.01	3	3	1	1	0	11.941	39.6619157	-78.7798369	39.676321	-78.954938	1399	2	US 40 AL	US 40 AL	01000US00040AL01EW**************	1	1	274	US	6					2016
140011	6	AL	US	40	0	SC			E	1	0	9.5	FIFTEEN MILE CREEK RD	FIFTEEN MILE CREEK RD (BACK)	WASHINGTON CO/L	9.5	7	1	1	0	0	9.5	39.6734645	-78.4594309	39.7002955	-78.317431	1400	1	US 40 SC	US 40 SC	01000US00040SC01EE**************	1	1	275	US	5					2016
140021	6	AL	US	40	0	SC			W	0	0	9.5	NATIONAL PIKE	WASHINGTON CO/L	GARRETT CO/L	9.5	3	3	1	0	0	9.5	39.7002955	-78.317431	39.6734645	-78.4594309	1400	2	US 40 SC	US 40 SC	01000US00040SC01EW**************	1	1	276	US	6					2016
140111	6	AL	US	220	0				N	1	0	18.84	MCMULLEN HWY	BEGIN BRIDGE IN WEST VIRGINIA	EXIT #42	18.84	5	1	1	1	0	18.84	39.441506	-78.975746	39.6448606	-78.7889063	1401	1	US 220	US 220	01000US00220  01NN**************	1	1	277	US	5					2016
140112	6	AL	US	220	0				N	1	23.56	27.3	NO NAME	ALI GHAN RD	PENNSYLVANIA ST/L	3.74	5	1	1	1	23.56	27.3	39.6732045	-78.7173444	39.7227045	-78.7063349	1401	1	US 220	US 220	01000US00220  01NN**************	1	1	278	US	5					2016
140121	6	AL	US	220	0				S	0	0	3.74	NO NAME	PENNSYLVANIA ST/L	ALI GHAN RD	3.74	3	3	1	1	23.56	27.3	39.7228139	-78.7064477	39.6732961	-78.7174487	1401	2	US 220	US 220	01000US00220  01NS**************	1	1	279	US	6					2016
140122	6	AL	US	220	0				S	0	8.46	27.3	MCMULLEN HWY	EXIT #42	BEGIN BRIDGE IN WEST VIRGINIA	18.84	3	3	1	1	0	18.823	39.6448384	-78.7888868	39.441506	-78.975746	1401	2	US 220	US 220	01000US00220  01NS**************	1	1	280	US	6					2016
143911	6	AL	MU	60	41				S	1	0	0.16	N ALLEGANY ST	CUMBERLAND ST	WASHINGTON ST	0.16	2	5	4	0	0	0.16	39.6538793	-78.7729894	39.6517126	-78.7733426	1439	1	MU 60 M41	MU 60 M41	01041MU00060  01SS**************	1	1	281	MU	5					2016
144011	6	AL	MU	61	41				S	1	0	0.31	S ALLEGANY ST	WASHINGTON ST	DUNBAR DR	0.31	2	5	4	0	0	0.31	39.6517126	-78.7733426	39.6472361	-78.7740726	1440	1	MU 61 M41	MU 61 M41	01041MU00061  01SS**************	1	1	282	MU	5					2016
146111	6	AL	MU	252	41				N	1	0	0.21	BALTIMORE ST #2	S GEORGE ST	RIDGEWAY TERR	0.21	2	5	4	0	0	0.21	39.6519927	-78.7597292	39.6528977	-78.7561341	1461	1	MU 252 M41	MU 252 M41	01041MU00252  01NN**************	1	1	283	MU	5					2016
146311	6	AL	MU	270	41				S	1	0.14	2.13	BEDFORD ST	IN CORP LMTS CUMBERLAND	SPUR TO BEDFORD ST #4 (MU0273)	1.99	2	5	4	0	0.14	2.13	39.6760872	-78.7411594	39.6533511	-78.762226	1463	1	MU 270 M41	MU 270 M41	01041MU00270  01SS**************	1	0	284	MU	5			N CENTRE ST	2.15	2016
147111	6	AL	MU	310	41				N	1	0.54	1.09	BISHOP WALSH RD	SETON DR	CREST DR	0.55	2	5	4	0	0.54	1.09	39.6511523	-78.798136	39.6573788	-78.7922424	1471	1	MU 310 M41	MU 310 M41	01041MU00310  01NN**************	1	0	285	MU	5	NEMACOLIN AVE	0.22	BISHOP WALSH RD (AHEAD)	1.22	2016
147211	6	AL	MU	320	41				N	1	0	0.52	BLACKISTON AVE	INDUSTRIAL BLVD	OLDTOWN RD	0.52	2	5	4	0	0	0.52	39.6307724	-78.7534133	39.6379049	-78.7505381	1472	1	MU 320 M41	MU 320 M41	01041MU00320  01NN**************	1	1	286	MU	5					2016
148211	6	AL	MU	410	41				E	1	0	1	BRADDOCK RD	SUNSET DR		1	2	5	4	0	0	1	39.6418141	-78.8124888	39.6449923	-78.7952946	1482	1	MU 410 M41	MU 410 M41	01041MU00410  01EE**************	1		287	MU	5			HIGHLAND AVE	1.43	2016
151511	6	AL	MU	672	41				S	1	0	0.4	S CENTRAL ST	MONROE ST	CECELIA ST	0.4	2	5	4	0	0	0.4	39.6537215	-78.7503051	39.649252	-78.754334	1515	1	MU 672 M41	MU 672 M41	01041MU00672  01SS**************	1	1	288	MU	5					2016
151711	6	AL	MU	680	41				N	1	0.04	0.38	S CENTRE ST	WINSTON ST	FREDERICK ST	0.34	1	1	4	1	0.04	0.38	39.648336	-78.7599349	39.6528176	-78.7621093	1517	1	MU 680 M41	MU 680 M41	01041MU00680  01NN**************	1	1	289	MU	5					2016
151811	6	AL	MU	681	41				N	1	0	0.85	N CENTRE ST	S CENTRE ST	N MECHANIC ST	0.85	1	1	4	1	0	0.85	39.6528186	-78.7621612	39.6591457	-78.7748089	1518	1	MU 681 M41	MU 681 M41	01041MU00681  01NN**************	1	1	290	MU	5					2016
154111	6	AL	MU	890	41				E	1	0	0.63	CUMBERLAND ST	TILGHMAN ST	WASHINGTON ST	0.63	2	5	4	0	0	0.63	39.6540577	-78.7745914	39.6508306	-78.7647491	1541	1	MU 890 M41	MU 890 M41	01041MU00890  01EE**************	1	1	291	MU	5					2016
160411	6	AL	MU	1390	41				N	1	0	0.41	FRANKLIN ST	N MECHANIC ST	ROAD END (ENT TO SCHOOL)	0.41	2	5	4	0	0	0.41	39.6584609	-78.7735254	39.6639323	-78.7710004	1604	1	MU 1390 M41	MU 1390 M41	01041MU01390  01NN**************	1	1	292	MU	5					2016
160811	6	AL	MU	1412	41				N	1	0	0.87	FREDERICK ST	FREDERICK ST		0.87	2	5	4	0	0	0.87	39.6528582	-78.762171	39.6634994	-78.7537819	1608	1	MU 1412 M41	MU 1412 M41	01041MU01412  01NN**************	1		293	MU	5			CONRAD ST	0.9	2016
162511	6	AL	MU	1570	41				N	1	0.14	0.35	GREENE ST		BUCKINGHAM RD	0.21	2	5	4	0	0.14	0.35	39.646394	-78.786796	39.6487573	-78.7847094	1625	1	MU 1570 M41	MU 1570 M41	01041MU01570  01NN**************		0	294	MU	5	SPEED LIMIT 25 MPH	0.12	FAYETTE ST	0.4	2016
164611	6	AL	MU	1750	41				N	1	0	0.93	HOLLAND ST	ALLEY #1	ROAD END	0.93	2	5	4	0	0	0.93	39.6605642	-78.7738578	39.6722636	-78.7659387	1646	1	MU 1750 M41	MU 1750 M41	01041MU01750  01NN**************	1	1	295	MU	5					2016
167311	6	AL	MU	1975	41				E	1	0	0.19	LAMONT ST	THOMAS ST	VIRGINIA AVE	0.19	2	5	4	0	0	0.19	39.640892	-78.764408	39.639778	-78.7615613	1673	1	MU 1975 M41	MU 1975 M41	01041MU01975  01EE**************	1	1	296	MU	5					2016
170411	6	AL	MU	2280	41				S	1	0	0.25	MARION ST	BALTIMORE AVE	MONROE ST (AHEAD)	0.25	2	5	4	0	0	0.25	39.657463	-78.751566	39.6539407	-78.7507019	1704	1	MU 2280 M41	MU 2280 M41	01041MU02280  01SS**************	1	1	297	MU	5					2016
170911	6	AL	MU	2320	41				N	1	0	0.81	MARYLAND AVE	VIRGINIA AVE (BACK)	EXIT #43D	0.81	2	5	4	0	0	0.81	39.639778	-78.7615613	39.6497548	-78.7553798	1709	1	MU 2320 M41	MU 2320 M41	01041MU02320  01NN**************	1	1	298	MU	5					2016
171611	6	AL	MU	2370	41				E	1	0	0.97	N MECHANIC ST	HENDERSON AVE	S MECHANIC ST (AHEAD)	0.97	1	1	4	1	0	0.97	39.659778	-78.7760178	39.6511791	-78.7630913	1716	1	MU 2370 M41	MU 2370 M41	01041MU02370  01EE**************	1	1	299	MU	5					2016
171711	6	AL	MU	2371	41				E	1	0	0.19	S MECHANIC ST	N MECHANIC ST (BACK)	INDUSTRIAL BLVD (AHEAD)	0.19	1	1	4	1	0	0.19	39.6511791	-78.7630913	39.6488398	-78.7612795	1717	1	MU 2371 M41	MU 2371 M41	01041MU02371  01EE**************	1	1	300	MU	5					2016
175511	6	AL	MU	2690	41				N	1	0	0.32	PARK ST	WILLIAMS ST #2	BALTIMORE AVE	0.32	2	5	4	0	0	0.32	39.64816	-78.7572175	39.6525168	-78.7582862	1755	1	MU 2690 M41	MU 2690 M41	01041MU02690  01NN**************	1	1	301	MU	5					2016
175911	6	AL	MU	2720	41				S	1	0	0.31	PEAR ST	FAIRVIEW AVE	N MECHANIC ST	0.31	2	5	4	0	0	0.31	39.6617345	-78.7696576	39.6574882	-78.7717603	1759	1	MU 2720 M41	MU 2720 M41	01041MU02720  01SS**************	1	1	302	MU	5					2016
178111	6	AL	MU	2915	41				N	1	0	0.84	QUEEN CITY DR	WINSTON ST	N MECHANIC ST	0.84	2	5	4	0	0	0.84	39.6487873	-78.7592021	39.6554415	-78.7665031	1781	1	MU 2915 M41	MU 2915 M41	01041MU02915  01NN**************	1	1	303	MU	5					2016
179811	6	AL	MU	3040	41				S	1	0	0.21	RIVER AVE	VIRGINIA AVE	GARDEN VIEW DR	0.21	2	5	4	0	0	0.21	39.6267203	-78.7685538	39.6261024	-78.772315	1798	1	MU 3040 M41	MU 3040 M41	01041MU03040  01SS**************	1	1	304	MU	5					2016
182311	6	AL	MU	3210	41				E	1	0	0.44	E SECOND ST	VIRGINIA AVE	MEMORIAL AVE	0.44	2	5	4	0	0	0.44	39.6364799	-78.7627457	39.6350311	-78.7546674	1823	1	MU 3210 M41	MU 3210 M41	01041MU03210  01EE**************	1	1	305	MU	5					2016
183011	6	AL	MU	3250	41				N	1	0	0.84	SETON DR	IN CORP LMTS CUMBERLAND	ENT TO SACRED HEART HOSPITAL (AHEAD)	0.84	2	5	4	0	0	0.84	39.6433162	-78.7992257	39.6545618	-78.7972372	1830	1	MU 3250 M41	MU 3250 M41	01041MU03250  01NN**************	1	1	306	MU	5					2016
183411	6	AL	MU	3290	41				E	1	0	0.17	SHAWNEE AVE                             	PIEDMONT AVE	FRANKLIN ST	0.17	2	5	4	0	0	0.17	39.6632544	-78.774739	39.6625195	-78.7716261	1834	1	MU 3290 M41	MU 3290 M41	01041MU03290  01EE**************	1	1	307	MU	5					2016
187611	6	AL	MU	3690	41				S	1	0	0.98	VIRGINIA AVE	LAMONT ST	E MARY ST	0.98	2	5	4	0	0	0.98	39.6397971	-78.7616054	39.6267203	-78.7685538	1876	1	MU 3690 M41	MU 3690 M41	01041MU03690  01SS**************	1	1	308	MU	5			ALLEY #159	1.02	2016
188311	6	AL	MU	3750	41				W	1	0	0.22	WASHINGTON ST	GREENE ST	N SMALLWOOD ST	0.22	2	5	4	0	0	0.22	39.6508033	-78.7645324	39.6512207	-78.7684732	1883	1	MU 3750 M41	MU 3750 M41	01041MU03750  01WW**************	1	0	309	MU	5			SPRUCE PL	0.26	2016
189111	6	AL	MU	3790	41				S	1	0	0.55	WEMPE DR	OLDTOWN RD	INDUSTRIAL BLVD	0.55	2	5	4	0	0	0.55	39.6391442	-78.7545691	39.631415	-78.757016	1891	1	MU 3790 M41	MU 3790 M41	01041MU03790  01SS**************	1	1	310	MU	5					2016
189711	6	AL	MU	3850	41				N	1	0	0.24	WILLIAMS ST	WILLIAMS ST #1	WILLIAMS ST #2 (AHEAD)	0.24	2	5	4	0	0	0.24	39.6446023	-78.7528162	39.6476636	-78.7549773	1897	1	MU 3850 M41	MU 3850 M41	01041MU03850  01NN**************	1	1	311	MU	5					2016
189911	6	AL	MU	3852	41				E	1	0	0.18	WILLIAMS ST #2	ROAD END	MARYLAND AVE	0.18	2	5	4	0	0	0.18	39.648212	-78.7578805	39.6476636	-78.7549773	1899	1	MU 3852 M41	MU 3852 M41	01041MU03852  01EE**************	1	1	312	MU	5					2016
217611	6	AL	MU	140	60				N	1	0	0.5	BROADWAY	STATE ST	ALLEY #24 (AHEAD)	0.5	2	5	4	0	0	0.5	39.6528397	-78.9354266	39.6573826	-78.9281957	2176	1	MU 140 M60	MU 140 M60	01060MU00140  01NN**************	1	1	313	MU	5					2016
218011	6	AL	MU	180	60				N	1	0	0.49	CENTER ST	PARK AVE #2	MAIN ST	0.49	2	5	4	0	0	0.49	39.6499897	-78.9299335	39.655881	-78.9252767	2180	1	MU 180 M60	MU 180 M60	01060MU00180  01NN**************	1	1	314	MU	5					2016
218511	6	AL	MU	210	60				W	1	0	0.89	COLLEGE AVE	SPRING ST	HIGH ST	0.89	2	5	4	0	0	0.89	39.6501859	-78.9249425	39.6590757	-78.9366222	2185	1	MU 210 M60	MU 210 M60	01060MU00210  01WW**************	1	1	315	MU	5					2016
223611	6	AL	MU	442	60				N	1	0	0.17	PARK AVE #2	WARNS LA	CENTER ST	0.17	2	5	4	0	0	0.17	39.6476566	-78.9289396	39.6499897	-78.9299335	2236	1	MU 442 M60	MU 442 M60	01060MU00442  01NN**************	1	1	316	MU	5					2016
226511	6	AL	MU	560	60				S	1	0	0.76	WATER ST	N WATER ST (BACK)	OUT CORP LMTS FROSTBURG	0.76	2	5	4	0	0	0.76	39.6578274	-78.9287436	39.658225	-78.9396905	2265	1	MU 560 M60	MU 560 M60	01060MU00560  01SS**************	1	1	317	MU	5					2016
226811	6	AL	MU	585	60				N	1	0.49	0.59	WELSH HILL RD	IN CORP LMTS FROSTBURG	PARK AVE #2 (AHEAD)	0.1	2	5	4	0	0.49	0.59	39.646121	-78.9290425	39.6475377	-78.9288631	2268	1	MU 585 M60	MU 585 M60	01060MU00585  01NN**************	1	1	318	MU	5					2016
249411	5	AA	CO	17	0				N	1	0.27	1.15	HAMMONDS FERRY RD	OAK GROVE RD	JOHN AVE	0.88	2	5	2	0	0.27	1.15	39.1997641	-76.6574486	39.211803	-76.6613875	2494	1	CO 17	CO 17	02000CO00017  01NN**************	1	0	319	CO	5	OAK GROVE RD	0.24	MICHAEL AVE	1.16	2016
304211	5	AA	CO	575	0				W	1	0	0.79	HANOVER RD	RIDGE RD	HOWARD CO/L	0.79	2	5	2	0	0	0.79	39.1836556	-76.7078074	39.1897947	-76.719796	3042	1	CO 575	CO 575	02000CO00575  01WW**************	1	1	320	CO	5					2016
304811	5	AA	CO	582	0				N	1	0.33	3.91	RIDGE RD	RIDGE RD (BACK)	FURNACE AVE	3.58	2	5	2	0	0.33	3.91	39.1636745	-76.711359	39.2109158	-76.7017402	3048	1	CO 582	CO 582	02000CO00582  01NN**************	0	1	321	CO	5	RIDGE RD (AHEAD)	0.16			2016
341511	5	AA	CO	961	0				E	1	0	0.94	SUDLERSVILLE SOUTH RD	BROCK BRIDGE RD	DAMERON S	0.94	2	5	2	0	0	0.94	39.0899014	-76.8236444	39.0915721	-76.8130582	3415	1	CO 961	CO 961	02000CO00961  01EE**************	1	1	322	CO	5					2016
348911	5	AA	CO	1041	0				W	1	0.12	0.24	WAUGH CHAPEL RD			0.12	2	5	2	0	0.12	0.24	39.0404386	-76.6770395	39.0413909	-76.6787171	3489	1	CO 1041	CO 1041	02000CO01041  01WW**************			323	CO	5	SPEED LIMIT 35 MPH	0.108		0.419	2016
377811	5	AA	CO	1332	0				S	1	0	2.79	GAMBRILLS RD	NEW CUT RD	ANNAPOLIS RD	2.79	2	5	2	0	0	2.79	39.1043758	-76.6542443	39.0677589	-76.6689694	3778	1	CO 1332	CO 1332	02000CO01332  01SS**************	1	1	324	CO	5					2016
392011	5	AA	CO	1476	0				E	1	0.69	1.57	BENFIELD BLVD	BENFIELD BLVD (BACK)	WEST BENFIELD RD	0.88	1	1	2	1	0.69	1.57	39.0947486	-76.62079	39.0883172	-76.6074364	3920	1	CO 1476	CO 1476	02000CO01476  01EE**************	0	1	325	CO	5					2016
398811	5	AA	CO	1547	0				N	1	0.06	0.63	HILLTOP RD		HILLTOP RD	0.57	2	5	2	0	0.06	0.63	39.1688567	-76.5302489	39.1720624	-76.5220455	3988	1	CO 1547	CO 1547	02000CO01547  01NN**************		1	326	CO	5	FORT SMALLWOOD RD	0	CREEK SHORE WAY	0.67	2016
416511	5	AA	CO	1729	0				N	1	0	0.49	RIVIERA DR                              	FORT SMALLWOOD RD	MAIN AVE	0.49	2	5	2	0	0	0.49	39.1572279	-76.5161652	39.1633301	-76.5116886	4165	1	CO 1729	CO 1729	02000CO01729  01NN**************	1	1	327	CO	5					2016
418411	5	AA	CO	1748	0				S	1	0	0.79	ARUNDEL RD                              	BAY RD	ARUNDEL RD (AHEAD)	0.79	2	5	2	0	0	0.79	39.1648719	-76.5037199	39.1552733	-76.5090904	4184	1	CO 1748	CO 1748	02000CO01748  01SS**************	1	1	328	CO	5					2016
440711	5	AA	CO	1975	0				S	1	0	1.51	NORTH SHORE RD	MOUNTAIN RD	EDGEWATER RD	1.51	2	5	2	0	0	1.51	39.1070121	-76.4882418	39.0895201	-76.4741094	4407	1	CO 1975	CO 1975	02000CO01975  01SS**************	1	0	329	CO	5			TRAILS END RD	1.75	2016
449811	5	AA	CO	2069	0				W	1	0	0.78	PASADENA RD	CATHERINE AVE (BACK)	SPRUCE AVE	0.78	2	5	2	0	0	0.78	39.1112431	-76.5558619	39.109841	-76.570018	4498	1	CO 2069	CO 2069	02000CO02069  01WW**************	1	0	330	CO	5			HOPELAND AVE	0.82	2016
463511	5	AA	CO	2209	0				S	1	0	0.66	ROBINSON RD	GOV RITCHIE HWY	BENFIELD RD (AHEAD)	0.66	1	1	2	1	0	0.66	39.0808098	-76.5488317	39.075633	-76.558793	4635	1	CO 2209	CO 2209	02000CO02209  01SS**************	1	1	331	CO	5					2016
490211	5	AA	CO	2485	0				W	1	0	0.5	HILLTOP DR	CAPE ST CLAIRE RD	MOUNTAIN TOP DR	0.5	2	5	2	0	0	0.5	39.0365267	-76.4395443	39.0429839	-76.4412225	4902	1	CO 2485	CO 2485	02000CO02485  01WW**************	1	1	332	CO	5					2016
511711	5	AA	CO	2712	0				S	1	1.995	2.48	RUTLAND RD			0.485	2	5	2	0	1.995	2.48	38.9659607	-76.6334095	38.9595792	-76.6363445	5117	1	CO 2712	CO 2712	02000CO02712  01SS**************			333	CO	5	NO NAME	1.85	RUTLANDVIEW DR	2.69	2016
515411	5	AA	CO	2749	0				E	1	4.47	4.76	RIVA RD			0.29	2	5	2	0	4.47	4.76	38.973491	-76.5615671	38.9757551	-76.5571657	5154	1	CO 2749	CO 2749	02000CO02749  01EE**************			334	CO	5	FRED STAUFFER LA (ENT TO H S)	4.44	NO NAME	4.78	2016
517811	5	AA	CO	2774	0				W	1	0.93	1.25	BESTGATE RD			0.32	2	5	2	0	0.93	1.25	38.9929414	-76.5431246	38.9914573	-76.5487202	5178	1	CO 2774	CO 2774	02000CO02774  01WW**************			335	CO	5		0.818	HOUSLEY RD (AHEAD)	1.3	2016
520311	5	AA	CO	2801	0				W	1	0.25	1.1	JENNIFER RD			0.85	2	5	2	0	0.25	1.1	38.9894137	-76.5305249	38.9862143	-76.5450165	5203	1	CO 2801	CO 2801	02000CO02801  01WW**************			336	CO	5	AA CO JENNIFER RD DETENTION CENTER	0.24	SPUR TO MD 450	1.16	2016
520511	5	AA	CO	2803	0				N	1	0.42	1.08	SEVERN GROVE RD		PORTERS HILL RD	0.66	2	5	2	0	0.42	1.08	39.0001943	-76.5354354	39.0071886	-76.5273846	5205	1	CO 2803	CO 2803	02000CO02803  01NN**************		0	337	CO	5	MANOR GROVE RD	0.141	DELLWOOD CT	1.19	2016
526711	5	AA	CO	2867	0				S	1	0.27	0.79	CHILDS POINT RD	OUT CORP LMTS ANNAPOLIS		0.52	2	5	2	0	0.27	0.79	38.9627306	-76.5327305	38.9557792	-76.5362067	5267	1	CO 2867	CO 2867	02000CO02867  01SS**************	1		338	CO	5					2016
528511	5	AA	CO	2885	0				S	1	1.33	1.64	HILLSMERE DR	KUETHE DR	BAY VIEW DR W	0.31	2	5	2	0	1.33	1.64	38.931705	-76.4939423	38.9272282	-76.4940832	5285	1	CO 2885	CO 2885	02000CO02885  01SS**************	0	1	339	CO	5	LEE DR	1.24			2016
533011	5	AA	CO	2930	0				S	1	0	1.38	BAY RIDGE RD	BAY RIDGE AVE	CATRINA LA	1.38	2	5	2	0	0	1.38	38.9500691	-76.4926214	38.9402935	-76.4712856	5330	1	CO 2930	CO 2930	02000CO02930  01SS**************	1	1	340	CO	5			CATRINA LA	1.47	2016
535011	5	AA	CO	2962	0				S	1	0	0.6	COHASSET AVE	ARUNDEL ON THE BAY RD (BACK)	MAGNOLIA AVE	0.6	2	5	2	0	0	0.6	38.9241707	-76.4652011	38.9161172	-76.4611235	5350	1	CO 2962	CO 2962	02000CO02962  01SS**************	1	1	341	CO	5					2016
563311	5	AA	CO	3261	0				N	1	0	0.28	SHOREHAM BEACH RD			0.28	2	5	2	0	0	0.28	38.8937215	-76.5102113	38.8915828	-76.5061056	5633	1	CO 3261	CO 3261	02000CO03261  01NN**************			342	CO	5			SPUR FR TRITON BEACH RD	0.304	2016
566811	5	AA	CO	3299	0				N	1	0	0.25	BEVERLY AVE	CHESAPEAKE DR	GRANDE VIEW AVE	0.25	2	5	2	0	0	0.25	38.8748362	-76.5053957	38.8773785	-76.508936	5668	1	CO 3299	CO 3299	02000CO03299  01NN**************	1	1	343	CO	5					2016
569111	5	AA	CO	3322	0				E	1	0	1.73	MILL SWAMP RD	SOLOMONS ISLAND RD	MUDDY CREEK RD	1.73	2	5	2	0	0	1.73	38.8893606	-76.5985053	38.8843829	-76.5686692	5691	1	CO 3322	CO 3322	02000CO03322  01EE**************	1	1	344	CO	5					2016
577511	5	AA	CO	3409	0				E	1	0	0.97	COLUMBIA BEACH RD	SHADYSIDE RD	COLUMBIA RD	0.97	2	5	2	0	0	0.97	38.825432	-76.5135995	38.822181	-76.500388	5775	1	CO 3409	CO 3409	02000CO03409  01EE**************	1	0	345	CO	5			CALLOWAY DR	1.4	2016
584211	5	AA	CO	3477	0				E	1	0	0.58	MASONS BEACH RD	DEALE RD	FRAZIER AVE	0.58	2	5	2	0	0	0.58	38.7812159	-76.5533396	38.774681	-76.5508693	5842	1	CO 3477	CO 3477	02000CO03477  01EE**************	1	1	346	CO	5					2016
584411	5	AA	CO	3479	0				W	1	0	0.14	FRAZIER AVE	MASONS BEACH RD	1ST ST	0.14	2	5	2	0	0	0.14	38.774681	-76.5508693	38.7736073	-76.5486137	5844	1	CO 3479	CO 3479	02000CO03479  01WW**************	1	1	347	CO	5					2016
655611	5	AA	CO	4237	0				E	1	1.78	2.59	MARLEY NECK BLVD			0.81	2	5	2	0	1.78	2.59	39.1683379	-76.5764055	39.1771086	-76.5664669	6556	1	CO 4237	CO 4237	02000CO04237  01EE**************			348	CO	5	MARLEY NECK RD	1.56	TANYARD COVE RD	2.62	2016
684111	5	AA	CO	4527	0				N	1	0.41	0.97	NEW RIDGE RD		ENT TO AIRPORT COMMONS DISTRIBUTION CTR	0.56	2	5	2	0	0.41	0.97	39.1664709	-76.7067519	39.1740755	-76.7036744	6841	1	CO 4527	CO 4527	02000CO04527  01NN**************		0	349	CO	5	RIDGE RD	0	STONEY RUN RD	1.42	2016
695911	5	AA	CO	4645	0				E	1	0	0.35	ODENTON RD	ENTRANCE TO MARC STATION PARKING	PINEY ORCHARD PKWY	0.35	1	1	2	1	0	0.35	39.0866557	-76.7055826	39.0841576	-76.7002111	6959	1	CO 4645	CO 4645	02000CO04645  01EE**************	1	1	350	CO	5					2016
747511	5	AA	CO	5175	0				E	1	0	2.84	BENFIELD RD	WEST BENFIELD RD (BACK)	EVERGREEN RD	2.84	1	1	2	1	0	2.84	39.0883148	-76.6075281	39.075633	-76.558793	7475	1	CO 5175	CO 5175	02000CO05175  01EE**************	1	1	351	CO	5					2016
776211	5	AA	CO	5464	0				S	1	0	2.29	FOREST DR	BYWATER RD	HILLSMERE DR	2.29	1	1	2	1	0	2.29	38.9715213	-76.522996	38.9500934	-76.4925657	7762	1	CO 5464	CO 5464	02000CO05464  01SS**************	1	1	352	CO	5					2016
779411	5	AA	CO	5496	0				N	1	2.51	2.74	PINEY ORCHARD PKWY	ODENTON RD	TELEGRAPH RD (AHEAD)	0.23	1	1	2	1	2.51	2.74	39.0841164	-76.7001688	39.0871756	-76.6988093	7794	1	CO 5496	CO 5496	02000CO05496  01NN**************	1	1	353	CO	5					2016
816311	5	AA	CO	5870	0				E	1	0	0.17	FOXSPRING DR	HOSPITAL DR	FOXVIEW DR	0.17	2	5	2	0	0	0.17	39.1340406	-76.6091481	39.1353213	-76.6068054	8163	1	CO 5870	CO 5870	02000CO05870  01EE**************	1	1	354	CO	5					2016
849511	5	AA	CO	6203	0				W	1	0.23	1.4	ARUNDEL MILLS BLVD		ARUNDEL MILLS BLVD (AHEAD)	1.17	2	5	2	0	0.23	1.4	39.1527524	-76.7250388	39.1546736	-76.7433123	8495	1	CO 6203	CO 6203	02000CO06203  01WW**************		1	355	CO	5		0.205			2016
915911	5	AA	GV	714	0				N	1	9.21	10.07	MAPES RD	MAPES RD (BACK)	END BRIDGE	0.86	1	1	70	1	9.21	10.07	39.098698	-76.768086	39.109808	-76.775219	9159	1	GV 714	GV 714	02000GV00714  01NN**************	1	1	356	GV	5					2016
916011	5	AA	IS	97	0				N	1	0	17.62	NO NAME	RAMP 11 FR IS 595 WB TO IS 595 WB	HARBOR TUNNEL THRUWAY (AHEAD)	17.62	5	1	1	1	0	17.62	38.9846841	-76.5712373	39.204788	-76.6297183	9160	1	IS 97	IS 97	02000IS00097  01NN**************	1	1	357	IS	5					2016
916021	5	AA	IS	97	0				S	0	0	17.62	NO NAME	HARBOR TUNNEL THRUWAY (AHEAD)	RAMP 11 FR IS 595 WB TO IS 595 WB	17.62	3	3	1	1	0	17.62	39.2049329	-76.6299698	38.9838798	-76.5720164	9160	2	IS 97	IS 97	02000IS00097  01NS**************	1	1	358	IS	6					2016
916111	5	AA	IS	195	0				N	1	0	2.56	METROPOLITAN BLVD	NO NAME (BACK)	BALTIMORE CO/L	2.56	5	1	1	1	0	2.56	39.1848527	-76.6750136	39.2142556	-76.6962475	9161	1	IS 195	IS 195	02000IS00195  01NN**************	1	1	359	IS	5					2016
916121	5	AA	IS	195	0				S	0	0	2.56	METROPOLITAN BLVD	BALTIMORE CO/L	NO NAME (BACK)	2.56	3	3	1	1	0	2.56	39.2141486	-76.6965437	39.1846402	-76.6751891	9161	2	IS 195	IS 195	02000IS00195  01NS**************	1	1	360	IS	6					2016
916211	5	AA	IS	595	0				E	1	0	10.62	JOHN HANSON HWY	PRINCE GEORGES CO/L	JOHN HANSON HWY (AHEAD)	10.62	5	1	1	1	0	10.62	38.9556049	-76.6939409	38.9971309	-76.511666	9162	1	IS 595	IS 595	02000IS00595  01EE**************	1	1	361	IS	5					2016
916221	5	AA	IS	595	0				W	0	0	10.62	JOHN HANSON HWY	JOHN HANSON HWY (AHEAD)	PRINCE GEORGES CO/L	10.62	3	3	1	1	0	10.62	38.9971637	-76.5119728	38.955882	-76.6939595	9162	2	IS 595	IS 595	02000IS00595  01EW**************	1	1	362	IS	6					2016
916311	5	AA	IS	695	0				N	1	0	2.92	BALTO BELTWAY (INNER LOOP)	BALTO BELTWAY (BACK)	BALTIMORE CO/L	2.92	5	1	1	1	0	2.92	39.2033398	-76.6287663	39.2303345	-76.6654844	9163	1	IS 695	IS 695	02000IS00695  01NN**************	1	1	363	IS	5					2016
916321	5	AA	IS	695	0				S	0	0	2.92	BALTO BELTWAY (INNER LOOP)	BALTIMORE CO/L	BALTO BELTWAY (BACK)	2.92	3	3	1	1	0	2.92	39.2302401	-76.6656501	39.203155	-76.6286368	9163	2	IS 695	IS 695	02000IS00695  01NS**************	1	1	364	IS	6					2016
916411	5	AA	IS	895	0				N	1	0	0.8	HARBOR TUNNEL THRUWAY	BALTIMORE CO/L	BALTO CITY LINE	0.8	9	1	31	1	0	0.8	39.2284801	-76.6267633	39.2369969	-76.6174955	9164	1	IS 895	IS 895	02000IS00895  01NN**************	1	1	365	IS	5					2016
916421	5	AA	IS	895	0				S	0	0	0.81	HARBOR TUNNEL THRUWAY (SB/L)		BALTIMORE CO/L	0.81	9	1	31	1	0	0.81	39.237047	-76.617622	39.228378	-76.627311	9164	2	IS 895	IS 895	02000IS00895  09SS**************		1	366	IS	6					2016
916511	5	AA	IS	895	0	A 			N	1	0	0.71	HARBOR TUNNEL THRUWAY	TOLL MAINTENANCE	EXIT #6A	0.71	9	1	31	1	0	0.71	39.204788	-76.6297183	39.2119152	-76.6247765	9165	1	IS 895 A	IS 895 A	02000IS00895A 01NN**************	1	1	367	IS	5					2016
916521	5	AA	IS	895	0	A 			S	0	0	0.71	HARBOR TUNNEL THRUWAY	EXIT #6A	BALTIMORE CO/L	0.71	9	1	31	1	0	0.71	39.2104915	-76.6250329	39.2049329	-76.6299698	9165	2	IS 895 A	IS 895 A	02000IS00895A 01NS**************	1	1	368	IS	6					2016
916611	5	AA	IS	895	0	B 			N	1	0	2.67	HARBOR TUNNEL THRUWAY	TOLL MAINTENANCE	EXIT #6	2.67	5	1	31	1	0	2.67	39.1988061	-76.6132944	39.2313279	-76.6221877	9166	1	IS 895 B	IS 895 B	02000IS00895B 01NN**************	1	1	369	IS	5					2016
916621	5	AA	IS	895	0	B 			S	0	0	2.67	HARBOR TUNNEL THRUWAY	EXIT #6	BALTIMORE CO/L	2.67	3	3	31	1	0	2.67	39.2343206	-76.6198916	39.1995107	-76.6136742	9166	2	IS 895 B	IS 895 B	02000IS00895B 01NS**************	1	1	370	IS	6					2016
916711	5	AA	MD	2	0				N	1	0	16.19	SOLOMONS ISLAND RD	CALVERT CO/L	CENTRAL AVE	16.19	7	1	1	1	0	16.19	38.720904	-76.604639	38.9266701	-76.5683429	9167	1	MD 2	MD 2	02000MD00002  01NN**************	1	1	371	MD	5					2016
916712	5	AA	MD	2	0				N	1	16.19	20.77	SOLOMONS ISLAND RD	CENTRAL AVE	IS 595 (WB/L)	4.58	5	1	1	1	16.19	20.77	38.9266701	-76.5683429	38.9862089	-76.5351629	9167	1	MD 2	MD 2	02000MD00002  01NN**************	1	1	372	MD	5					2016
916713	5	AA	MD	2	0				N	1	23.87	41.4	GOV RITCHIE HWY	EXIT #27	BALTO CITY LINE	17.53	5	1	1	1	23.87	41.4	39.0142806	-76.4909585	39.2343539	-76.6116685	9167	1	MD 2	MD 2	02000MD00002  01NN**************	1	1	373	MD	5					2016
916721	5	AA	MD	2	0				S	0	0	17.53	GOV RITCHIE HWY	BALTO CITY LINE	EXIT #27	17.53	3	3	1	1	23.87	41.394	39.2342728	-76.6117886	39.0142806	-76.4909585	9167	2	MD 2	MD 2	02000MD00002  01NS**************	1	1	374	MD	6					2016
916722	5	AA	MD	2	0				S	0	20.63	41.4	SOLOMONS ISLAND RD	IS 595 (WB/L)	CALVERT CO/L	20.77	3	3	1	1	0	20.539	38.986133	-76.535364	38.720904	-76.604639	9167	2	MD 2	MD 2	02000MD00002  01NS**************	1	1	375	MD	6					2016
916911	5	AA	MD	2	0	AB			E	1	0	0.04	NO NAME	OLD SOLOMONS ISLAND RD	SOLOMONS ISLAND RD	0.04	4	4	1	0	0	0.04	38.7483296	-76.5931913	38.7483301	-76.5924649	9169	1	MD 2 AB	MD 2 AB	02000MD00002AB04EE**************	1	1	376	MD	5					2016
916921	5	AA	MD	2	0	AB			W	0	0	0.04	NO NAME	SOLOMONS ISLAND RD	OLD SOLOMONS ISLAND RD	0.04	4	4	1	0	0	0.04	38.7483301	-76.5924649	38.7483296	-76.5931913	9169	2	MD 2 AB	MD 2 AB	02000MD00002AB04EW**************	1	1	377	MD	6					2016
917011	5	AA	MD	2	0	AD			N	1	0	0.2	SOLOMONS ISLAND RD	SOLOMONS ISLAND RD (BACK)	JENNIFER RD	0.2	4	4	1	0	0	0.2	38.9862089	-76.5351629	38.9890275	-76.5361451	9170	1	MD 2 AD	MD 2 AD	02000MD00002AD01NN**************	1	1	378	MD	5					2016
917021	5	AA	MD	2	0	AD			S	0	0	0.2	SOLOMONS ISLAND RD	JENNIFER RD	CALVERT CO/L	0.2	4	4	1	0	0	0.2	38.9890113	-76.536282	38.986208	-76.5353556	9170	2	MD 2 AD	MD 2 AD	02000MD00002AD01NS**************	1	1	379	MD	6					2016
917111	5	AA	MD	3	0				N	1	0	7.11	ROBERT CRAIN HWY	PRINCE GEORGES CO/L	EXIT #7	7.11	5	1	1	1	0	7.11	38.988886	-76.705467	39.0710819	-76.6351956	9171	1	MD 3	MD 3	02000MD00003  01NN**************	1	1	380	MD	5					2016
917121	5	AA	MD	3	0				S	0	0	7.11	ROBERT CRAIN HWY	EXIT #7	PRINCE GEORGES CO/L	7.11	3	3	1	1	0	7.11	39.0742982	-76.6312379	38.98905	-76.705663	9171	2	MD 3	MD 3	02000MD00003  01NS**************	1	1	381	MD	6					2016
917211	5	AA	MD	3	0	BU			N	1	0	5.08	NEW CUT RD	NEW CUT RD (BACK)	GOV RITCHIE HWY	5.08	7	1	1	0	0	5.08	39.1205838	-76.6456252	39.1880014	-76.6132033	9172	1	MD 3 BU	MD 3 BU	02000MD00003BU01NN**************	1	1	382	MD	5					2016
917221	5	AA	MD	3	0	BU			S	0	0.03	5.08	CRAIN HWY	SPUR FR MD 2	PRINCE GEORGES CO/L	5.05	3	3	1	0	0.03	5.08	39.1877787	-76.6138387	39.1207967	-76.645571	9172	2	MD 3 BU	MD 3 BU	02000MD00003BU01NS**************	0	1	383	MD	6					2016
917311	5	AA	MD	3	0	C 			E	1	0.14	0.39	BENFIELD BLVD	STOP SIGN	EXIT #10	0.25	2	5	1	1	0.14	0.39	39.0944054	-76.6315225	39.0947366	-76.6268699	9173	1	MD 3 C	MD 3 C	02000MD00003C 01EE**************	1	1	384	MD	5			END BRIDGE	0.416	2016
917312	5	AA	MD	3	0	C 			E	1	0.39	0.69	BENFIELD BLVD	EXIT #10	BENFIELD BLVD (AHEAD)	0.3	9	1	1	1	0.39	0.69	39.0947366	-76.6268699	39.0947486	-76.62079	9173	1	MD 3 C	MD 3 C	02000MD00003C 01EE**************	1	1	385	MD	5					2016
917321	5	AA	MD	3	0	C 			W	0	0	0.3	BENFIELD BLVD	BENFIELD BLVD (AHEAD)	EXIT #10	0.3	9	1	1	1	0.386		39.0948139	-76.6207874	39.094897	-76.626935	9173	2	MD 3 C	MD 3 C	02000MD00003C 01EW**************	1	1	386	MD	6					2016
917322	5	AA	MD	3	0	C 			W	0	0.3	0.55	BENFIELD BLVD	EXIT #10	STOP SIGN	0.25	4	4	1	1	0.14	0.386	39.094897	-76.626935	39.0944054	-76.6315225	9173	2	MD 3 C	MD 3 C	02000MD00003C 01EW**************	1	1	387	MD	6					2016
917411	5	AA	MD	3	0	D 			E	1	0	0.26	BRIGHTVIEW DR	GROVER RD	BRIGHTVIEW DR (AHEAD)	0.26	4	4	1	0	0	0.26	39.1101131	-76.635472	39.1115375	-76.6310702	9174	1	MD 3 D	MD 3 D	02000MD00003D 01EE**************	1	1	388	MD	5					2016
917421	5	AA	MD	3	0	D 			W	0	0	0.26	BRIGHTVIEW DR	BRIGHTVIEW DR (AHEAD)	GROVER RD	0.26	4	4	1	0	0	0.26	39.1115375	-76.6310702	39.1101131	-76.635472	9174	2	MD 3 D	MD 3 D	02000MD00003D 01EW**************	1	1	389	MD	6					2016
917511	5	AA	MD	4	0				N	1	0	4.77	SOUTHERN MD BLVD	CALVERT CO/L	PRINCE GEORGES CO/L	4.77	5	1	1	1	0	4.77	38.764801	-76.6572041	38.8112097	-76.712232	9175	1	MD 4	MD 4	02000MD00004  01NN**************	1	1	390	MD	5					2016
917521	5	AA	MD	4	0				S	0	0	4.77	STEPHANIE ROPER HIGHWAY	PRINCE GEORGES CO/L	CALVERT CO/L	4.77	3	3	1	1	0	4.77	38.8109358	-76.7121664	38.764789	-76.657599	9175	2	MD 4	MD 4	02000MD00004  01NS**************	1	1	391	MD	6					2016
917611	5	AA	MD	10	0				N	1	0	0.81	ARUNDEL EXPWY	GOV RITCHIE HWY	NO NAME (AHEAD)	0.81	5	1	1	1	0	0.81	39.1143673	-76.5791189	39.124907	-76.5768268	9176	1	MD 10	MD 10	02000MD00010  01NN**************	1	1	392	MD	5					2016
917612	5	AA	MD	10	0				N	1	1.29	7.17	ARUNDEL EXPWY	NO NAME (BACK)	EXIT #7	5.88	5	1	1	1	1.29	7.17	39.129595	-76.5823617	39.206485	-76.5974671	9176	1	MD 10	MD 10	02000MD00010  01NN**************	1	1	393	MD	5					2016
917621	5	AA	MD	10	0				S	0	0	5.88	ARUNDEL EXPWY	EXIT #7	NO NAME (BACK)	5.88	3	3	1	1	1.29	7.17	39.2066454	-76.600766	39.1280308	-76.5821314	9176	2	MD 10	MD 10	02000MD00010  01NS**************	1	1	394	MD	6					2016
917622	5	AA	MD	10	0				S	0	6.36	7.17	ARUNDEL EXPWY	NO NAME (AHEAD)	GOV RITCHIE HWY	0.81	3	3	1	1	0	0.525	39.1234313	-76.5786	39.1144036	-76.5789951	9176	2	MD 10	MD 10	02000MD00010  01NS**************	1	1	395	MD	6					2016
917711	5	AA	MD	32	0				N	1	0	9.21	NO NAME	EXIT #7	END STATE MAINTENANCE	9.21	5	1	1	1	0	9.21	39.0588251	-76.6340053	39.0986978	-76.7680856	9177	1	MD 32	MD 32	02000MD00032  01NN**************	1	1	396	MD	5					2016
917712	5	AA	MD	32	0				N	1	10.07	11.46	SAVAGE RD	BEGIN STATE MAINTENANCE	HOWARD CO/L	1.39	5	1	1	1	10.07	11.46	39.1098077	-76.7752189	39.1256096	-76.7902162	9177	1	MD 32	MD 32	02000MD00032  01NN**************	1	1	397	MD	5					2016
917721	5	AA	MD	32	0				S	0	0	1.39	SAVAGE RD	HOWARD CO/L	BEGIN STATE MAINTENANCE	1.39	3	3	1	1	10.07	11.46	39.1254631	-76.7904226	39.1097983	-76.7753864	9177	2	MD 32	MD 32	02000MD00032  01NS**************	1	1	398	MD	6					2016
917722	5	AA	MD	32	0				S	0	2.25	11.46	MAPES RD	END STATE MAINTENANCE	EXIT #7	9.21	3	3	1	1	0	9.166	39.0978265	-76.7681628	39.0570505	-76.6322025	9177	2	MD 32	MD 32	02000MD00032  01NS**************	1	1	399	MD	6					2016
917811	5	AA	MD	32	0	AA			N	1	0	1	SAPPINGTON STATION RD	NO NAME	ANNAPOLIS RD	1	7	1	1	0	0	1	39.0782809	-76.6692098	39.0784956	-76.6846938	9178	1	MD 32 AA	MD 32 AA	02000MD00032AA01NN**************	1	1	400	MD	5					2016
917821	5	AA	MD	32	0	AA			S	0	0	1	SAPPINGTON STATION RD	ANNAPOLIS RD	RAMP 8 FR MD 32AA TO MD 32 WB	1	4	4	1	0	0	1	39.0783403	-76.6844583	39.0806256	-76.672667	9178	2	MD 32 AA	MD 32 AA	02000MD00032AA01NS**************	1	0	401	MD	6					2016
917911	5	AA	MD	32	0	AH			E	1	0	0.04	LODIGIANI AVE	STOP SIGN		0.04	4	4	1	0	0	0.04	39.073944	-76.6624591	39.0736756	-76.6617963	9179	1	MD 32 AH	MD 32 AH	02000MD00032AH01EE**************	1		402	MD	5					2016
917921	5	AA	MD	32	0	AH			W	0	0	0.04	LODIGIANI AVE		GAMBRILLS RD	0.04	4	4	1	0	0	0.04	39.0736756	-76.6617963	39.073944	-76.6624591	9179	2	MD 32 AH	MD 32 AH	02000MD00032AH01EW**************		1	403	MD	6					2016
918011	5	AA	MD	70	0				N	1	0	0.27	BLADEN ST	COLLEGE AVE	BEGIN STATE MAINTENANCE	0.27	2	5	4	0	0	0.27	38.979535	-76.4919986	38.982138	-76.49586	9180	1	MD 70	MD 70	02000MD00070  01NN**************	1	1	404	MD	5			STRUC #2043 COLLEGE CREEK	0.37	2016
918012	5	AA	MD	70	0				N	1	0.27	2.31	ROWE BLVD	BEGIN STATE MAINTENANCE	BESTGATE RD (AHEAD)	2.04	7	1	1	0	0.27	2.31	38.982138	-76.49586	38.9965665	-76.5265906	9180	1	MD 70	MD 70	02000MD00070  01NN**************	1	1	405	MD	5					2016
918021	5	AA	MD	70	0				S	0	0	2.04	BESTGATE RD	BESTGATE RD (AHEAD)	BEGIN STATE MAINTENANCE	2.04	3	3	1	0	0	2.04	38.9965665	-76.5265906	38.98208	-76.495935	9180	2	MD 70	MD 70	02000MD00070  01NS**************	1	1	406	MD	6					2016
918111	5	AA	MD	70	0	A 			N	1	0	0.15	N LAWRENCE AVE	STOP SIGN	N LAWRENCE AVE (AHEAD)	0.15	4	4	1	0	0	0.15	38.9969651	-76.5242646	38.9991104	-76.5248424	9181	1	MD 70 A	MD 70 A	02000MD00070A 01NN**************	1	1	407	MD	5					2016
918121	5	AA	MD	70	0	A 			S	0	0	0.15	N LAWRENCE AVE	CALVERT ST	COLLEGE AVE	0.15	4	4	1	0	0	0.15	38.9991104	-76.5248424	38.9969651	-76.5242646	9181	2	MD 70 A	MD 70 A	02000MD00070A 01NS**************	1	1	408	MD	6					2016
918211	5	AA	MD	70	0	C 			E	1	0	0.08	N BESTGATE RD	BESTGATE RD	N BESTGATE RD (AHEAD)	0.08	4	4	1	0	0	0.08	38.9971205	-76.5217354	38.9977316	-76.520614	9182	1	MD 70 C	MD 70 C	02000MD00070C 01EE**************	1	1	409	MD	5					2016
918221	5	AA	MD	70	0	C 			W	0	0	0.08	N BESTGATE RD	N BESTGATE RD (AHEAD)	BESTGATE RD	0.08	4	4	1	0	0	0.08	38.9977316	-76.520614	38.9971205	-76.5217354	9182	2	MD 70 C	MD 70 C	02000MD00070C 01EW**************	1	1	410	MD	6					2016
918311	5	AA	MD	100	0				E	1	0	14.87	NO NAME	HOWARD CO/L	MOUNTAIN RD	14.87	5	1	1	1	0	14.87	39.1795552	-76.7414272	39.1178956	-76.5065423	9183	1	MD 100	MD 100	02000MD00100  01EE**************	1	1	411	MD	5					2016
918321	5	AA	MD	100	0				W	0	0	14.87	NO NAME	MOUNTAIN RD	HOWARD CO/L	14.87	3	3	1	1	0	14.87	39.1191799	-76.5085518	39.1796768	-76.7411387	9183	2	MD 100	MD 100	02000MD00100  01EW**************	1	1	412	MD	6					2016
918411	5	AA	MD	100	0	M 			N	1	0	0.34	COCA COLA DR	DORSEY RD	HOWARD CO/L	0.34	4	4	1	0	0	0.34	39.1763052	-76.7409978	39.1798615	-76.7367054	9184	1	MD 100 M	MD 100 M	02000MD00100M 01NN**************	1	1	413	MD	5					2016
918421	5	AA	MD	100	0	M 			S	0	0	0.34	COCA COLA DR	HOWARD CO/L	DORSEY RD	0.34	4	4	1	0	0	0.34	39.1798615	-76.7367054	39.1763781	-76.7410838	9184	2	MD 100 M	MD 100 M	02000MD00100M 01NS**************	1	1	414	MD	6					2016
918511	5	AA	MD	100	0	N 			S	1	0	0.2	WRIGHT RD	DORSEY RD	WRIGHT RD (AHEAD)	0.2	4	4	1	0	0	0.2	39.1683153	-76.7262382	39.166852	-76.7291903	9185	1	MD 100 N	MD 100 N	02000MD00100N 01SS**************	1	1	415	MD	5					2016
918521	5	AA	MD	100	0	N 			N	0	0	0.2	WRIGHT RD	WRIGHT RD (AHEAD)	DORSEY RD	0.2	4	4	1	0	0	0.2	39.166852	-76.7291903	39.1683153	-76.7262382	9185	2	MD 100 N	MD 100 N	02000MD00100N 01SN**************	1	1	416	MD	6					2016
918611	5	AA	MD	100	0	O 			N	1	0	0.04	OLD SECTION WRIGHT RD	WRIGHT RD	OLD SECTION WRIGHT RD (AHEAD)	0.04	4	4	1	0	0	0.04	39.1671995	-76.7288833	39.1677519	-76.7288144	9186	1	MD 100 O	MD 100 O	02000MD00100O 01NN**************	1	1	417	MD	5					2016
918621	5	AA	MD	100	0	O 			S	0	0	0.04	OLD SECTION WRIGHT RD	OLD SECTION WRIGHT RD (AHEAD)	DORSEY RD	0.04	4	4	1	0	0	0.04	39.1677519	-76.7288144	39.1671995	-76.7288833	9186	2	MD 100 O	MD 100 O	02000MD00100O 01NS**************	1	1	418	MD	6					2016
918711	5	AA	MD	100	0	P 			N	1	0.99	1.25	HARMANS RD	HARMANS RD (BACK)	HARMANS RD (AHEAD)	0.26	4	4	1	0	0.99	1.25	39.1485694	-76.708117	39.1513881	-76.7048818	9187	1	MD 100 P	MD 100 P	02000MD00100P 01NN**************	1	1	419	MD	5					2016
918721	5	AA	MD	100	0	P 			S	0	0	0.26	HARMANS RD	HARMANS RD (AHEAD)	HARMANS RD (BACK)	0.26	4	4	1	0	0	0.26	39.1513881	-76.7048818	39.1485694	-76.708117	9187	2	MD 100 P	MD 100 P	02000MD00100P 01NS**************	1	1	420	MD	6					2016
918811	5	AA	MD	100	0	Q 			E	1	0.29	0.55	QUEENSTOWN RD	QUEENSTOWN RD (BACK)	QUEENSTOWN RD (AHEAD)	0.26	4	4	1	0	0.29	0.55	39.1536947	-76.6789502	39.1527436	-76.6745026	9188	1	MD 100 Q	MD 100 Q	02000MD00100Q 01EE**************	1	1	421	MD	5					2016
